,GEOID,mar_rate,div_rate,county,lat,long
0,1001,56.1,11.4,"Autauga County, Alabama",32.536382,-86.64449
1,1003,52.8,12.7,"Baldwin County, Alabama",30.659218,-87.746067
2,1005,41.2,12.5,"Barbour County, Alabama",31.87067,-85.405456
3,1007,47.6,11.7,"Bibb County, Alabama",33.015893,-87.127148
4,1009,59.2,11.1,"Blount County, Alabama",33.977448,-86.567246
5,1011,29.5,12.9,"Bullock County, Alabama",32.101759,-85.717261
6,1013,43.6,11.3,"Butler County, Alabama",31.751667,-86.681969
7,1015,48.6,13.6,"Calhoun County, Alabama",33.771706,-85.822513
8,1017,45.4,13.1,"Chambers County, Alabama",32.917943,-85.391812
9,1019,61.3,11.6,"Cherokee County, Alabama",34.069515,-85.654242
10,1021,53.3,12.0,"Chilton County, Alabama",32.85406,-86.726628
11,1023,47.7,12.4,"Choctaw County, Alabama",31.991008,-88.248887
12,1025,47.6,9.1,"Clarke County, Alabama",31.685521,-87.818624
13,1027,53.6,11.9,"Clay County, Alabama",33.267809,-85.862051
14,1029,55.7,12.7,"Cleburne County, Alabama",33.671981,-85.516109
15,1031,51.1,13.5,"Coffee County, Alabama",31.402183,-85.989201
16,1033,51.4,14.2,"Colbert County, Alabama",34.703112,-87.801457
17,1035,47.2,8.9,"Conecuh County, Alabama",31.428293,-86.992029
18,1037,43.5,14.4,"Coosa County, Alabama",32.931445,-86.243482
19,1039,52.1,13.4,"Covington County, Alabama",31.243987,-86.448721
20,1041,49.0,12.4,"Crenshaw County, Alabama",31.732826,-86.319222
21,1043,56.6,13.6,"Cullman County, Alabama",34.131923,-86.869267
22,1045,49.5,14.1,"Dale County, Alabama",31.430654,-85.609476
23,1047,34.6,11.4,"Dallas County, Alabama",32.33354,-87.114356
24,1049,52.0,12.5,"DeKalb County, Alabama",34.460929,-85.803992
25,1051,50.9,12.3,"Elmore County, Alabama",32.597229,-86.142739
26,1053,43.6,12.2,"Escambia County, Alabama",31.121748,-87.168429
27,1055,49.1,14.0,"Etowah County, Alabama",34.047638,-86.03442
28,1057,53.0,12.4,"Fayette County, Alabama",33.732249,-87.752049
29,1059,50.6,13.9,"Franklin County, Alabama",34.441988,-87.842815
30,1061,52.2,12.4,"Geneva County, Alabama",31.090866,-85.824346
31,1063,32.8,12.7,"Greene County, Alabama",32.844497,-87.964201
32,1065,41.5,10.4,"Hale County, Alabama",32.752796,-87.623061
33,1067,54.7,10.8,"Henry County, Alabama",31.516978,-85.239971
34,1069,46.0,14.2,"Houston County, Alabama",31.158193,-85.296398
35,1071,54.3,12.2,"Jackson County, Alabama",34.763522,-85.9774
36,1073,43.3,13.1,"Jefferson County, Alabama",33.553444,-86.896536
37,1075,59.0,11.8,"Lamar County, Alabama",33.787085,-88.087431
38,1077,51.8,12.4,"Lauderdale County, Alabama",34.904122,-87.650997
39,1079,55.5,12.6,"Lawrence County, Alabama",34.529776,-87.321865
40,1081,43.3,10.2,"Lee County, Alabama",32.604064,-85.353048
41,1083,52.6,12.1,"Limestone County, Alabama",34.810239,-86.9814
42,1085,33.5,11.8,"Lowndes County, Alabama",32.147888,-86.650586
43,1087,30.5,11.2,"Macon County, Alabama",32.387027,-85.692887
44,1089,49.7,11.9,"Madison County, Alabama",34.764238,-86.55108
45,1091,40.5,13.0,"Marengo County, Alabama",32.247591,-87.791091
46,1093,56.9,10.4,"Marion County, Alabama",34.138219,-87.881551
47,1095,52.4,13.1,"Marshall County, Alabama",34.309564,-86.321668
48,1097,44.7,13.0,"Mobile County, Alabama",30.684573,-88.196568
49,1099,43.5,11.3,"Monroe County, Alabama",31.580332,-87.383266
50,1101,39.9,12.5,"Montgomery County, Alabama",32.203651,-86.203831
51,1103,52.0,13.2,"Morgan County, Alabama",34.454484,-86.846402
52,1105,24.2,12.0,"Perry County, Alabama",32.639005,-87.293827
53,1107,43.1,12.4,"Pickens County, Alabama",33.296809,-88.096878
54,1109,37.7,10.6,"Pike County, Alabama",31.798726,-85.941997
55,1111,52.7,12.6,"Randolph County, Alabama",33.296475,-85.464068
56,1113,43.3,13.2,"Russell County, Alabama",32.289811,-85.18698
57,1115,55.6,13.6,"St. Clair County, Alabama",33.712963,-86.315663
58,1117,57.0,11.1,"Shelby County, Alabama",33.262937,-86.678104
59,1119,29.1,12.8,"Sumter County, Alabama",32.597481,-88.200057
60,1121,47.4,12.7,"Talladega County, Alabama",33.369277,-86.175805
61,1123,50.3,12.3,"Tallapoosa County, Alabama",32.863369,-85.799553
62,1125,42.2,9.7,"Tuscaloosa County, Alabama",33.290202,-87.52286
63,1127,52.0,14.1,"Walker County, Alabama",33.791571,-87.301092
64,1129,51.4,13.3,"Washington County, Alabama",31.406974,-88.202078
65,1131,33.0,10.4,"Wilcox County, Alabama",31.99033,-87.302205
66,1133,54.0,14.3,"Winston County, Alabama",34.155888,-87.364147
67,2013,49.7,9.0,"Aleutians East Borough, Alaska",55.243722,-161.950749
68,2016,41.8,12.6,"Aleutians West Census Area, Alaska",51.959447,-178.338813
69,2020,47.8,11.7,"Anchorage Municipality, Alaska",61.177549,-149.274354
70,2050,38.9,6.5,"Bethel Census Area, Alaska",60.928916,-160.15335
71,2060,54.3,9.9,"Bristol Bay Borough, Alaska",58.731373,-156.986612
72,2068,44.6,14.4,"Denali Borough, Alaska",63.682732,-150.026719
73,2070,40.3,9.0,"Dillingham Census Area, Alaska",59.824816,-158.602233
74,2090,49.6,10.7,"Fairbanks North Star Borough, Alaska",64.690832,-146.599867
75,2100,56.1,14.0,"Haines Borough, Alaska",59.099905,-135.578102
76,2105,50.0,18.4,"Hoonah-Angoon Census Area, Alaska",58.076434,-135.1851
77,2110,50.1,11.5,"Juneau City and Borough, Alaska",58.3727,-134.178781
78,2122,51.0,13.8,"Kenai Peninsula Borough, Alaska",60.366373,-152.321973
79,2130,49.1,14.8,"Ketchikan Gateway Borough, Alaska",55.449938,-131.106685
80,2150,54.2,9.6,"Kodiak Island Borough, Alaska",57.553611,-153.630911
81,2164,40.2,9.9,"Lake and Peninsula Borough, Alaska",58.205065,-156.705188
82,2170,51.6,12.3,"Matanuska-Susitna Borough, Alaska",62.182174,-149.407974
83,2180,36.0,9.5,"Nome Census Area, Alaska",64.783686,-164.188912
84,2185,46.7,11.0,"North Slope Borough, Alaska",69.449343,-153.47283
85,2188,35.3,5.9,"Northwest Arctic Borough, Alaska",67.005066,-160.021086
86,2195,49.7,13.6,"Petersburg Borough, Alaska",56.639612,-133.527996
87,2198,44.4,15.2,"Prince of Wales-Hyder Census Area, Alaska",55.415683,-132.875734
88,2220,50.1,13.1,"Sitka City and Borough, Alaska",57.142509,-135.332624
89,2230,47.6,11.5,"Skagway Municipality, Alaska",59.575097,-135.335418
90,2240,52.0,9.8,"Southeast Fairbanks Census Area, Alaska",63.864997,-143.218628
91,2261,46.1,12.8,"Valdez-Cordova Census Area, Alaska",61.34984,-145.023141
92,2275,52.8,15.8,"Wrangell City and Borough, Alaska",56.279121,-132.040326
93,2282,41.5,11.9,"Yakutat City and Borough, Alaska",59.999083,-140.239593
94,2290,37.3,7.8,"Yukon-Koyukuk Census Area, Alaska",65.376131,-151.576855
95,4001,34.9,8.8,"Apache County, Arizona",35.385845,-109.493747
96,4003,50.3,13.5,"Cochise County, Arizona",31.881793,-109.75412
97,4005,40.5,9.9,"Coconino County, Arizona",35.829692,-111.773728
98,4007,51.0,14.9,"Gila County, Arizona",33.789618,-110.81187
99,4009,44.7,11.9,"Graham County, Arizona",32.931828,-109.87831
100,4011,50.6,13.6,"Greenlee County, Arizona",33.238872,-109.242323
101,4012,55.7,11.2,"La Paz County, Arizona",33.727625,-114.038793
102,4013,46.9,12.2,"Maricopa County, Arizona",33.346541,-112.495534
103,4015,48.8,15.7,"Mohave County, Arizona",35.717705,-113.749689
104,4017,44.8,11.4,"Navajo County, Arizona",35.390934,-110.320908
105,4019,45.1,13.1,"Pima County, Arizona",32.128237,-111.783018
106,4021,49.8,13.0,"Pinal County, Arizona",32.91891,-111.367257
107,4023,51.4,10.8,"Santa Cruz County, Arizona",31.525904,-110.84519
108,4025,54.8,14.6,"Yavapai County, Arizona",34.630044,-112.573745
109,4027,54.8,8.4,"Yuma County, Arizona",32.773942,-113.910905
110,5001,48.5,13.3,"Arkansas County, Arkansas",34.289574,-91.376547
111,5003,56.1,11.2,"Ashley County, Arkansas",33.190835,-91.772267
112,5005,58.0,13.5,"Baxter County, Arkansas",36.28071,-92.330438
113,5007,59.0,10.6,"Benton County, Arkansas",36.337825,-94.256187
114,5009,56.6,13.8,"Boone County, Arkansas",36.304308,-93.079204
115,5011,48.2,11.4,"Bradley County, Arkansas",33.463819,-92.168164
116,5013,52.0,12.4,"Calhoun County, Arkansas",33.56046,-92.513879
117,5015,54.7,14.3,"Carroll County, Arkansas",36.337774,-93.541663
118,5017,42.6,12.7,"Chicot County, Arkansas",33.267139,-91.297158
119,5019,43.7,8.6,"Clark County, Arkansas",34.053312,-93.176205
120,5021,50.5,14.8,"Clay County, Arkansas",36.367302,-90.418704
121,5023,56.4,15.1,"Cleburne County, Arkansas",35.566288,-92.059974
122,5025,55.9,12.1,"Cleveland County, Arkansas",33.893201,-92.188714
123,5027,47.1,10.0,"Columbia County, Arkansas",33.21507,-93.226901
124,5029,54.4,12.3,"Conway County, Arkansas",35.265702,-92.689248
125,5031,47.3,13.9,"Craighead County, Arkansas",35.828268,-90.630411
126,5033,58.7,12.1,"Crawford County, Arkansas",35.583041,-94.236224
127,5035,40.7,13.0,"Crittenden County, Arkansas",35.211878,-90.315331
128,5037,52.8,11.4,"Cross County, Arkansas",35.291259,-90.773894
129,5039,50.1,9.8,"Dallas County, Arkansas",33.967823,-92.653999
130,5041,43.2,12.5,"Desha County, Arkansas",33.828748,-91.244427
131,5043,49.2,8.1,"Drew County, Arkansas",33.587242,-91.722778
132,5045,48.6,11.8,"Faulkner County, Arkansas",35.146356,-92.324654
133,5047,53.9,14.3,"Franklin County, Arkansas",35.508573,-93.887672
134,5049,62.5,10.9,"Fulton County, Arkansas",36.383443,-91.819239
135,5051,50.4,15.7,"Garland County, Arkansas",34.578861,-93.146915
136,5053,56.2,12.4,"Grant County, Arkansas",34.288063,-92.423984
137,5055,53.9,15.0,"Greene County, Arkansas",36.119922,-90.565241
138,5057,45.0,14.9,"Hempstead County, Arkansas",33.728611,-93.665809
139,5059,53.5,14.2,"Hot Spring County, Arkansas",34.315177,-92.944147
140,5061,47.2,13.4,"Howard County, Arkansas",34.083179,-93.990988
141,5063,52.7,13.3,"Independence County, Arkansas",35.737499,-91.559942
142,5065,55.0,12.7,"Izard County, Arkansas",36.094879,-91.913625
143,5067,40.2,18.8,"Jackson County, Arkansas",35.596605,-91.223178
144,5069,39.8,12.7,"Jefferson County, Arkansas",34.277696,-91.930701
145,5071,54.9,14.3,"Johnson County, Arkansas",35.573359,-93.466322
146,5073,40.8,15.9,"Lafayette County, Arkansas",33.24066,-93.611643
147,5075,50.4,14.9,"Lawrence County, Arkansas",36.041098,-91.101153
148,5077,37.2,11.5,"Lee County, Arkansas",34.77975,-90.779288
149,5079,39.6,12.8,"Lincoln County, Arkansas",33.957665,-91.727624
150,5081,49.2,15.0,"Little River County, Arkansas",33.699497,-94.229774
151,5083,52.0,13.7,"Logan County, Arkansas",35.21855,-93.720563
152,5085,56.6,13.0,"Lonoke County, Arkansas",34.755114,-91.894132
153,5087,60.6,12.7,"Madison County, Arkansas",36.012545,-93.724053
154,5089,57.2,13.2,"Marion County, Arkansas",36.266656,-92.678588
155,5091,45.5,15.1,"Miller County, Arkansas",33.305505,-93.901509
156,5093,43.9,14.7,"Mississippi County, Arkansas",35.766943,-90.052209
157,5095,43.2,12.4,"Monroe County, Arkansas",34.679513,-91.203314
158,5097,60.3,12.9,"Montgomery County, Arkansas",34.545652,-93.664147
159,5099,48.7,14.7,"Nevada County, Arkansas",33.666699,-93.305072
160,5101,57.9,13.2,"Newton County, Arkansas",35.910063,-93.215084
161,5103,46.3,12.5,"Ouachita County, Arkansas",33.591158,-92.878418
162,5105,55.4,13.4,"Perry County, Arkansas",34.946363,-92.926877
163,5107,36.6,12.9,"Phillips County, Arkansas",34.425842,-90.848386
164,5109,57.9,14.3,"Pike County, Arkansas",34.158191,-93.658659
165,5111,48.0,15.2,"Poinsett County, Arkansas",35.568981,-90.680595
166,5113,51.4,16.6,"Polk County, Arkansas",34.490915,-94.230884
167,5115,49.2,13.2,"Pope County, Arkansas",35.455297,-93.031535
168,5117,53.4,14.0,"Prairie County, Arkansas",34.828225,-91.5572
169,5119,43.2,13.8,"Pulaski County, Arkansas",34.773988,-92.316515
170,5121,55.5,14.7,"Randolph County, Arkansas",36.341299,-91.028441
171,5123,38.0,15.6,"St. Francis County, Arkansas",35.014438,-90.742199
172,5125,55.4,13.8,"Saline County, Arkansas",34.648525,-92.674463
173,5127,53.5,15.1,"Scott County, Arkansas",34.858869,-94.063641
174,5129,60.0,12.5,"Searcy County, Arkansas",35.90966,-92.699351
175,5131,49.9,14.2,"Sebastian County, Arkansas",35.196981,-94.274989
176,5133,53.0,11.8,"Sevier County, Arkansas",33.994608,-94.24329
177,5135,52.1,16.4,"Sharp County, Arkansas",36.173399,-91.471069
178,5137,56.6,13.8,"Stone County, Arkansas",35.856989,-92.140494
179,5139,50.0,14.1,"Union County, Arkansas",33.168219,-92.598145
180,5141,54.3,16.2,"Van Buren County, Arkansas",35.582959,-92.515977
181,5143,49.0,10.7,"Washington County, Arkansas",35.971209,-94.218417
182,5145,52.2,12.2,"White County, Arkansas",35.254722,-91.753158
183,5147,44.2,14.6,"Woodruff County, Arkansas",35.189071,-91.244418
184,5149,53.0,11.6,"Yell County, Arkansas",34.997713,-93.408303
185,6001,48.3,8.6,"Alameda County, California",37.648081,-121.913304
186,6003,44.9,11.4,"Alpine County, California",38.61761,-119.798999
187,6005,52.8,14.4,"Amador County, California",38.44355,-120.653856
188,6007,42.3,13.3,"Butte County, California",39.665959,-121.601919
189,6009,53.4,12.8,"Calaveras County, California",38.187844,-120.555115
190,6011,54.8,8.7,"Colusa County, California",39.177739,-122.237563
191,6013,51.7,9.8,"Contra Costa County, California",37.919479,-121.951543
192,6015,41.3,14.5,"Del Norte County, California",41.749903,-123.980998
193,6017,55.3,11.7,"El Dorado County, California",38.785532,-120.534398
194,6019,43.8,9.9,"Fresno County, California",36.761006,-119.655019
195,6021,52.6,10.3,"Glenn County, California",39.602546,-122.4017
196,6023,40.7,13.2,"Humboldt County, California",40.706673,-123.925818
197,6025,43.4,9.4,"Imperial County, California",33.040816,-115.355395
198,6027,47.1,12.1,"Inyo County, California",36.561977,-117.403927
199,6029,46.6,9.7,"Kern County, California",35.346629,-118.729506
200,6031,44.1,10.7,"Kings County, California",36.072478,-119.81553
201,6033,44.9,15.8,"Lake County, California",39.094802,-122.746757
202,6035,42.6,12.4,"Lassen County, California",40.721089,-120.629931
203,6037,42.5,8.3,"Los Angeles County, California",34.196398,-118.261862
204,6039,48.1,8.6,"Madera County, California",37.210039,-119.749852
205,6041,52.2,12.6,"Marin County, California",38.051817,-122.745974
206,6043,56.3,12.8,"Mariposa County, California",37.570034,-119.91286
207,6045,44.2,16.7,"Mendocino County, California",39.432388,-123.442881
208,6047,45.6,9.6,"Merced County, California",37.194806,-120.722802
209,6049,51.5,14.0,"Modoc County, California",41.592919,-120.71837
210,6051,42.9,12.4,"Mono County, California",37.915836,-118.875167
211,6053,46.2,8.2,"Monterey County, California",36.240107,-121.315573
212,6055,50.9,11.2,"Napa County, California",38.507351,-122.325995
213,6057,53.1,13.6,"Nevada County, California",39.295191,-120.773446
214,6059,50.3,9.0,"Orange County, California",33.675687,-117.777207
215,6061,55.5,11.0,"Placer County, California",39.062032,-120.722718
216,6063,53.1,14.8,"Plumas County, California",39.99517,-120.829516
217,6065,48.1,10.1,"Riverside County, California",33.729828,-116.002239
218,6067,45.2,11.8,"Sacramento County, California",38.450011,-121.340441
219,6069,51.3,9.6,"San Benito County, California",36.610702,-121.085296
220,6071,45.3,10.0,"San Bernardino County, California",34.85722,-116.181197
221,6073,47.3,10.4,"San Diego County, California",33.023604,-116.776117
222,6075,39.3,8.3,"San Francisco County, California",37.727239,-123.032229
223,6077,47.9,9.6,"San Joaquin County, California",37.935034,-121.272237
224,6079,48.4,10.1,"San Luis Obispo County, California",35.385227,-120.44754
225,6081,52.0,9.1,"San Mateo County, California",37.414664,-122.371542
226,6083,44.9,9.1,"Santa Barbara County, California",34.537378,-120.038485
227,6085,53.3,7.9,"Santa Clara County, California",37.220777,-121.690622
228,6087,44.2,10.5,"Santa Cruz County, California",37.012488,-122.007205
229,6089,49.6,14.7,"Shasta County, California",40.760522,-122.04355
230,6091,57.0,9.1,"Sierra County, California",39.576925,-120.521993
231,6093,50.6,14.5,"Siskiyou County, California",41.587986,-122.533287
232,6095,46.7,11.6,"Solano County, California",38.267226,-121.939594
233,6097,47.4,13.6,"Sonoma County, California",38.532574,-122.945194
234,6099,48.0,10.7,"Stanislaus County, California",37.562384,-121.002656
235,6101,53.1,11.5,"Sutter County, California",39.035257,-121.702758
236,6103,50.7,12.9,"Tehama County, California",40.126156,-122.232276
237,6105,51.8,16.9,"Trinity County, California",40.647724,-123.114404
238,6107,47.1,9.1,"Tulare County, California",36.230453,-118.780542
239,6109,50.1,13.5,"Tuolumne County, California",38.021451,-119.964708
240,6111,50.4,10.1,"Ventura County, California",34.358742,-119.133143
241,6113,43.6,8.6,"Yolo County, California",38.679268,-121.903178
242,6115,50.3,12.3,"Yuba County, California",39.270026,-121.34428
243,8001,49.4,12.3,"Adams County, Colorado",39.874325,-104.331872
244,8003,45.0,11.0,"Alamosa County, Colorado",37.568442,-105.788041
245,8005,50.4,12.1,"Arapahoe County, Colorado",39.644632,-104.331733
246,8007,59.6,13.1,"Archuleta County, Colorado",37.202395,-107.050863
247,8009,56.4,10.8,"Baca County, Colorado",37.303144,-102.535457
248,8011,44.7,12.0,"Bent County, Colorado",37.931891,-103.077584
249,8013,47.3,11.1,"Boulder County, Colorado",40.094826,-105.398382
250,8014,58.7,9.4,"Broomfield County, Colorado",39.953383,-105.052125
251,8015,57.9,12.4,"Chaffee County, Colorado",38.738246,-106.316972
252,8017,56.9,10.6,"Cheyenne County, Colorado",38.835387,-102.604585
253,8019,57.8,14.5,"Clear Creek County, Colorado",39.689403,-105.670791
254,8021,55.1,8.7,"Conejos County, Colorado",37.213407,-106.176447
255,8023,50.0,16.6,"Costilla County, Colorado",37.277547,-105.42894
256,8025,30.1,14.3,"Crowley County, Colorado",38.321956,-103.787562
257,8027,68.8,11.2,"Custer County, Colorado",38.101994,-105.373515
258,8029,55.7,14.9,"Delta County, Colorado",38.861756,-107.864757
259,8031,39.1,12.8,"Denver County, Colorado",39.761849,-104.880625
260,8033,54.6,14.4,"Dolores County, Colorado",37.747602,-108.530383
261,8035,65.5,9.2,"Douglas County, Colorado",39.326435,-104.926199
262,8037,50.2,10.0,"Eagle County, Colorado",39.630638,-106.692944
263,8039,61.8,9.5,"Elbert County, Colorado",39.310817,-104.117928
264,8041,53.8,11.7,"El Paso County, Colorado",38.827383,-104.527472
265,8043,50.4,13.4,"Fremont County, Colorado",38.455658,-105.421438
266,8045,58.4,10.8,"Garfield County, Colorado",39.599352,-107.90978
267,8047,57.8,11.9,"Gilpin County, Colorado",39.861082,-105.528947
268,8049,53.6,12.6,"Grand County, Colorado",40.123289,-106.095876
269,8051,45.3,10.1,"Gunnison County, Colorado",38.669679,-107.078108
270,8053,69.1,10.6,"Hinsdale County, Colorado",37.811625,-107.383405
271,8055,47.9,15.9,"Huerfano County, Colorado",37.687815,-104.959928
272,8057,63.1,13.6,"Jackson County, Colorado",40.663432,-106.329248
273,8059,52.6,12.9,"Jefferson County, Colorado",39.58646,-105.245601
274,8061,59.0,9.3,"Kiowa County, Colorado",38.388466,-102.75621
275,8063,57.6,8.5,"Kit Carson County, Colorado",39.30534,-102.603023
276,8065,50.6,14.9,"Lake County, Colorado",39.204316,-106.349696
277,8067,49.9,12.9,"La Plata County, Colorado",37.287367,-107.839718
278,8069,50.1,10.4,"Larimer County, Colorado",40.663091,-105.482131
279,8071,53.3,12.2,"Las Animas County, Colorado",37.318831,-104.04411
280,8073,45.5,12.1,"Lincoln County, Colorado",38.99374,-103.507555
281,8075,45.5,13.0,"Logan County, Colorado",40.728091,-103.090464
282,8077,50.9,13.7,"Mesa County, Colorado",39.019492,-108.461837
283,8079,66.6,10.0,"Mineral County, Colorado",37.651478,-106.9323
284,8081,53.6,12.0,"Moffat County, Colorado",40.573984,-108.204521
285,8083,51.7,15.2,"Montezuma County, Colorado",37.338025,-108.595786
286,8085,57.6,13.4,"Montrose County, Colorado",38.413427,-108.263042
287,8087,54.6,12.2,"Morgan County, Colorado",40.262354,-103.807092
288,8089,51.2,11.5,"Otero County, Colorado",37.88417,-103.72126
289,8091,61.2,12.1,"Ouray County, Colorado",38.1506,-107.767133
290,8093,60.8,15.0,"Park County, Colorado",39.118914,-105.717648
291,8095,58.2,9.8,"Phillips County, Colorado",40.594712,-102.345105
292,8097,39.5,21.0,"Pitkin County, Colorado",39.217533,-106.915943
293,8099,53.7,11.6,"Prowers County, Colorado",37.958181,-102.392161
294,8101,46.3,14.5,"Pueblo County, Colorado",38.170658,-104.489893
295,8103,55.8,10.4,"Rio Blanco County, Colorado",39.972606,-108.200685
296,8105,56.1,11.6,"Rio Grande County, Colorado",37.485763,-106.453214
297,8107,50.2,12.0,"Routt County, Colorado",40.48316,-106.985289
298,8109,54.4,16.4,"Saguache County, Colorado",38.033952,-106.246675
299,8111,44.4,13.5,"San Juan County, Colorado",37.781075,-107.670257
300,8113,46.8,16.1,"San Miguel County, Colorado",38.009374,-108.427326
301,8115,52.3,15.8,"Sedgwick County, Colorado",40.871568,-102.355358
302,8117,45.1,11.7,"Summit County, Colorado",39.621023,-106.137555
303,8119,59.7,13.8,"Teller County, Colorado",38.871994,-105.182552
304,8121,59.2,10.2,"Washington County, Colorado",39.965413,-103.209605
305,8123,55.4,11.3,"Weld County, Colorado",40.555794,-104.383649
306,8125,56.4,10.5,"Yuma County, Colorado",40.000631,-102.422649
307,9001,50.9,9.4,"Fairfield County, Connecticut",41.228103,-73.366757
308,9003,46.5,10.9,"Hartford County, Connecticut",41.806053,-72.732916
309,9005,53.7,12.0,"Litchfield County, Connecticut",41.791897,-73.235428
310,9007,52.0,11.1,"Middlesex County, Connecticut",41.434525,-72.524227
311,9009,44.5,10.8,"New Haven County, Connecticut",41.349717,-72.900204
312,9011,48.2,12.3,"New London County, Connecticut",41.47863,-72.103452
313,9013,46.0,10.2,"Tolland County, Connecticut",41.858076,-72.340977
314,9015,46.8,12.4,"Windham County, Connecticut",41.824999,-71.990702
315,10001,47.7,11.8,"Kent County, Delaware",39.097088,-75.502982
316,10003,45.4,11.0,"New Castle County, Delaware",39.575915,-75.644132
317,10005,52.2,12.2,"Sussex County, Delaware",38.677511,-75.335495
318,11001,28.2,9.1,"District of Columbia, District of Columbia",38.904149,-77.017094
319,12001,37.0,10.1,"Alachua County, Florida",29.67574,-82.357221
320,12003,47.5,12.5,"Baker County, Florida",30.324442,-82.302284
321,12005,48.8,14.4,"Bay County, Florida",30.237563,-85.631348
322,12007,40.7,15.6,"Bradford County, Florida",29.946934,-82.166796
323,12009,49.1,14.6,"Brevard County, Florida",28.298276,-80.700384
324,12011,43.0,13.4,"Broward County, Florida",26.19352,-80.476658
325,12013,41.7,15.4,"Calhoun County, Florida",30.388801,-85.197916
326,12015,55.3,13.2,"Charlotte County, Florida",26.868826,-81.940858
327,12017,53.0,14.2,"Citrus County, Florida",28.843628,-82.524796
328,12019,54.6,11.7,"Clay County, Florida",29.987116,-81.858147
329,12021,54.9,11.4,"Collier County, Florida",26.118713,-81.400884
330,12023,45.6,14.4,"Columbia County, Florida",30.221305,-82.623127
331,12027,47.6,10.5,"DeSoto County, Florida",27.190581,-81.806253
332,12029,44.8,17.4,"Dixie County, Florida",29.580899,-83.195666
333,12031,42.9,14.0,"Duval County, Florida",30.335245,-81.648113
334,12033,40.8,14.4,"Escambia County, Florida",30.611664,-87.33904
335,12035,53.8,11.7,"Flagler County, Florida",29.474894,-81.286362
336,12037,50.7,13.1,"Franklin County, Florida",29.810176,-84.799174
337,12039,41.5,12.5,"Gadsden County, Florida",30.57917,-84.612783
338,12041,47.3,13.8,"Gilchrist County, Florida",29.723456,-82.795801
339,12043,40.2,14.6,"Glades County, Florida",26.95481,-81.19082
340,12045,45.3,15.3,"Gulf County, Florida",29.907257,-85.256537
341,12047,39.8,13.5,"Hamilton County, Florida",30.491102,-82.951049
342,12049,43.8,12.0,"Hardee County, Florida",27.492846,-81.82158
343,12051,43.9,11.2,"Hendry County, Florida",26.53934,-81.151584
344,12053,51.4,13.8,"Hernando County, Florida",28.567911,-82.464835
345,12055,53.8,12.8,"Highlands County, Florida",27.342627,-81.340921
346,12057,44.9,12.4,"Hillsborough County, Florida",27.90659,-82.349568
347,12059,47.4,15.0,"Holmes County, Florida",30.866222,-85.812959
348,12061,51.6,13.1,"Indian River County, Florida",27.700638,-80.574803
349,12063,42.2,14.2,"Jackson County, Florida",30.787812,-85.210374
350,12065,44.8,13.9,"Jefferson County, Florida",30.424558,-83.890859
351,12067,41.1,10.4,"Lafayette County, Florida",29.990066,-83.17851
352,12069,54.0,11.8,"Lake County, Florida",28.764113,-81.712282
353,12071,50.6,13.4,"Lee County, Florida",26.552134,-81.89225
354,12073,37.9,10.1,"Leon County, Florida",30.45931,-84.2778
355,12075,46.8,16.8,"Levy County, Florida",29.284409,-82.783483
356,12077,40.6,15.7,"Liberty County, Florida",30.259849,-84.868581
357,12079,42.8,13.1,"Madison County, Florida",30.447228,-83.470437
358,12081,51.5,12.7,"Manatee County, Florida",27.481386,-82.365784
359,12083,49.1,13.9,"Marion County, Florida",29.202805,-82.0431
360,12085,50.5,13.7,"Martin County, Florida",27.079954,-80.398211
361,12086,40.8,12.6,"Miami-Dade County, Florida",25.610494,-80.499045
362,12087,46.0,17.2,"Monroe County, Florida",25.601043,-81.206777
363,12089,55.4,13.0,"Nassau County, Florida",30.605926,-81.764929
364,12091,52.6,11.8,"Okaloosa County, Florida",30.665858,-86.594194
365,12093,43.7,13.1,"Okeechobee County, Florida",27.385592,-80.887388
366,12095,42.7,11.6,"Orange County, Florida",28.514435,-81.323295
367,12097,45.9,12.3,"Osceola County, Florida",28.059027,-81.139312
368,12099,47.0,12.3,"Palm Beach County, Florida",26.645763,-80.448673
369,12101,50.7,13.1,"Pasco County, Florida",28.302024,-82.455707
370,12103,44.5,15.8,"Pinellas County, Florida",27.903122,-82.739518
371,12105,47.7,12.0,"Polk County, Florida",27.953115,-81.692783
372,12107,44.5,16.3,"Putnam County, Florida",29.606006,-81.740894
373,12109,56.3,11.7,"St. Johns County, Florida",29.890593,-81.383914
374,12111,49.1,12.9,"St. Lucie County, Florida",27.380775,-80.443364
375,12113,54.9,12.1,"Santa Rosa County, Florida",30.703633,-87.014255
376,12115,52.9,13.8,"Sarasota County, Florida",27.184386,-82.365835
377,12117,47.0,12.4,"Seminole County, Florida",28.690079,-81.13198
378,12119,61.7,11.9,"Sumter County, Florida",28.714294,-82.074715
379,12121,47.9,16.3,"Suwannee County, Florida",30.189244,-82.992754
380,12123,43.4,13.7,"Taylor County, Florida",30.016943,-83.616417
381,12125,35.9,18.0,"Union County, Florida",30.05428,-82.366918
382,12127,46.4,15.4,"Volusia County, Florida",29.057617,-81.161813
383,12129,46.2,14.8,"Wakulla County, Florida",30.140378,-84.375136
384,12131,51.7,15.1,"Walton County, Florida",30.631211,-86.176614
385,12133,47.3,13.1,"Washington County, Florida",30.602217,-85.662797
386,13001,50.0,11.1,"Appling County, Georgia",31.739712,-82.290103
387,13003,49.0,12.2,"Atkinson County, Georgia",31.300562,-82.883614
388,13005,52.3,11.9,"Bacon County, Georgia",31.563327,-82.387859
389,13007,49.4,8.9,"Baker County, Georgia",31.319622,-84.454857
390,13009,34.6,11.2,"Baldwin County, Georgia",33.059532,-83.255362
391,13011,57.3,13.2,"Banks County, Georgia",34.351922,-83.498441
392,13013,50.7,12.9,"Barrow County, Georgia",33.992009,-83.712303
393,13015,53.5,13.4,"Bartow County, Georgia",34.240918,-84.838188
394,13017,41.9,8.8,"Ben Hill County, Georgia",31.740776,-83.14719
395,13019,51.9,9.3,"Berrien County, Georgia",31.274308,-83.231906
396,13021,37.3,12.1,"Bibb County, Georgia",32.808844,-83.694193
397,13023,41.1,11.6,"Bleckley County, Georgia",32.435403,-83.331717
398,13025,54.2,14.0,"Brantley County, Georgia",31.197334,-81.982978
399,13027,47.4,12.7,"Brooks County, Georgia",30.833696,-83.588971
400,13029,58.8,8.6,"Bryan County, Georgia",32.017969,-81.438543
401,13031,38.2,8.9,"Bulloch County, Georgia",32.393408,-81.74381
402,13033,46.6,10.4,"Burke County, Georgia",33.063737,-82.00389
403,13035,46.6,9.7,"Butts County, Georgia",33.290355,-83.958221
404,13037,31.8,13.7,"Calhoun County, Georgia",31.521279,-84.62629
405,13039,53.9,11.3,"Camden County, Georgia",30.916358,-81.636516
406,13043,48.2,13.5,"Candler County, Georgia",32.403986,-82.071446
407,13045,47.6,12.0,"Carroll County, Georgia",33.582237,-85.080527
408,13047,56.3,12.3,"Catoosa County, Georgia",34.899393,-85.137353
409,13049,46.9,12.2,"Charlton County, Georgia",30.779904,-82.139644
410,13051,41.3,12.4,"Chatham County, Georgia",31.974756,-81.091768
411,13053,42.0,5.2,"Chattahoochee County, Georgia",32.347445,-84.788021
412,13055,48.1,14.6,"Chattooga County, Georgia",34.474179,-85.345289
413,13057,58.3,11.4,"Cherokee County, Georgia",34.244317,-84.475057
414,13059,30.7,8.2,"Clarke County, Georgia",33.952234,-83.36713
415,13061,37.0,7.1,"Clay County, Georgia",31.619831,-84.992583
416,13063,35.4,13.1,"Clayton County, Georgia",33.552242,-84.412977
417,13065,41.7,11.9,"Clinch County, Georgia",30.917653,-82.702614
418,13067,51.3,10.5,"Cobb County, Georgia",33.93994,-84.574166
419,13069,42.6,12.7,"Coffee County, Georgia",31.549245,-82.844938
420,13071,46.0,13.2,"Colquitt County, Georgia",31.189758,-83.769741
421,13073,56.6,9.9,"Columbia County, Georgia",33.550556,-82.251342
422,13075,47.6,11.4,"Cook County, Georgia",31.152935,-83.429552
423,13077,57.5,9.9,"Coweta County, Georgia",33.352897,-84.762138
424,13079,49.9,14.0,"Crawford County, Georgia",32.709446,-83.979182
425,13081,43.4,10.1,"Crisp County, Georgia",31.914753,-83.753338
426,13083,53.8,11.4,"Dade County, Georgia",34.852424,-85.506201
427,13085,58.6,11.4,"Dawson County, Georgia",34.442842,-84.173284
428,13087,42.8,11.4,"Decatur County, Georgia",30.877961,-84.577744
429,13089,38.1,11.9,"DeKalb County, Georgia",33.770661,-84.226343
430,13091,46.0,10.8,"Dodge County, Georgia",32.160656,-83.156818
431,13093,40.5,13.1,"Dooly County, Georgia",32.151995,-83.807167
432,13095,33.7,12.7,"Dougherty County, Georgia",31.535068,-84.214444
433,13097,47.1,12.6,"Douglas County, Georgia",33.699317,-84.765944
434,13099,37.8,11.1,"Early County, Georgia",31.324191,-84.906723
435,13101,50.0,10.7,"Echols County, Georgia",30.7085,-82.836132
436,13103,55.1,12.3,"Effingham County, Georgia",32.361711,-81.343337
437,13105,48.4,11.2,"Elbert County, Georgia",34.115017,-82.842057
438,13107,41.0,12.6,"Emanuel County, Georgia",32.5911,-82.299763
439,13109,50.4,12.8,"Evans County, Georgia",32.151902,-81.887618
440,13111,56.9,13.7,"Fannin County, Georgia",34.863837,-84.319287
441,13113,60.2,8.6,"Fayette County, Georgia",33.412717,-84.493941
442,13115,48.4,13.5,"Floyd County, Georgia",34.263677,-85.21373
443,13117,64.0,8.3,"Forsyth County, Georgia",34.225143,-84.127336
444,13119,52.2,12.4,"Franklin County, Georgia",34.375155,-83.227291
445,13121,38.0,11.0,"Fulton County, Georgia",33.790034,-84.468182
446,13123,60.2,11.9,"Gilmer County, Georgia",34.690541,-84.453984
447,13125,53.3,13.5,"Glascock County, Georgia",33.227491,-82.606913
448,13127,49.5,13.3,"Glynn County, Georgia",31.212747,-81.496517
449,13129,54.7,12.0,"Gordon County, Georgia",34.509667,-84.873862
450,13131,48.2,12.3,"Grady County, Georgia",30.875863,-84.244772
451,13133,50.2,10.3,"Greene County, Georgia",33.576836,-83.167103
452,13135,52.2,9.3,"Gwinnett County, Georgia",33.959101,-84.022938
453,13137,53.4,11.8,"Habersham County, Georgia",34.635108,-83.526406
454,13139,52.2,10.3,"Hall County, Georgia",34.317588,-83.818497
455,13141,30.0,13.6,"Hancock County, Georgia",33.26922,-83.000465
456,13143,55.2,13.9,"Haralson County, Georgia",33.795165,-85.220062
457,13145,56.7,11.1,"Harris County, Georgia",32.731549,-84.912432
458,13147,51.0,12.4,"Hart County, Georgia",34.348733,-82.96329
459,13149,51.3,15.9,"Heard County, Georgia",33.290968,-85.139594
460,13151,50.6,11.6,"Henry County, Georgia",33.452881,-84.15444
461,13153,49.9,11.9,"Houston County, Georgia",32.458381,-83.662856
462,13155,47.7,9.2,"Irwin County, Georgia",31.604306,-83.277037
463,13157,55.9,11.5,"Jackson County, Georgia",34.134157,-83.565133
464,13159,53.1,14.2,"Jasper County, Georgia",33.314905,-83.687892
465,13161,53.1,11.7,"Jeff Davis County, Georgia",31.811615,-82.636825
466,13163,42.0,11.7,"Jefferson County, Georgia",33.051874,-82.41905
467,13165,43.9,11.6,"Jenkins County, Georgia",32.794563,-81.971524
468,13167,40.6,12.4,"Johnson County, Georgia",32.689831,-82.661354
469,13169,54.2,12.7,"Jones County, Georgia",33.020226,-83.562339
470,13171,41.9,11.5,"Lamar County, Georgia",33.07446,-84.146721
471,13173,50.5,13.8,"Lanier County, Georgia",31.038197,-83.063164
472,13175,43.6,11.7,"Laurens County, Georgia",32.39322,-82.926317
473,13177,57.8,9.1,"Lee County, Georgia",31.818419,-84.146681
474,13179,52.1,10.5,"Liberty County, Georgia",31.807245,-81.457969
475,13181,46.3,15.4,"Lincoln County, Georgia",33.792151,-82.448299
476,13183,47.8,15.2,"Long County, Georgia",31.749563,-81.74287
477,13185,42.0,10.6,"Lowndes County, Georgia",30.83368,-83.268967
478,13187,47.2,11.7,"Lumpkin County, Georgia",34.568149,-83.998828
479,13189,47.2,11.0,"McDuffie County, Georgia",33.482464,-82.473188
480,13191,48.5,12.4,"McIntosh County, Georgia",31.482978,-81.370199
481,13193,33.3,10.5,"Macon County, Georgia",32.366216,-84.052162
482,13195,52.2,11.9,"Madison County, Georgia",34.128486,-83.203637
483,13197,47.1,8.0,"Marion County, Georgia",32.359538,-84.529561
484,13199,48.0,11.8,"Meriwether County, Georgia",33.03022,-84.663279
485,13201,51.4,12.7,"Miller County, Georgia",31.162908,-84.730386
486,13205,41.0,10.1,"Mitchell County, Georgia",31.22894,-84.192407
487,13207,51.1,11.3,"Monroe County, Georgia",33.017435,-83.922938
488,13209,47.7,13.0,"Montgomery County, Georgia",32.172108,-82.533349
489,13211,54.9,9.5,"Morgan County, Georgia",33.593732,-83.492324
490,13213,54.7,14.1,"Murray County, Georgia",34.797097,-84.73799
491,13215,39.7,13.7,"Muscogee County, Georgia",32.510197,-84.874946
492,13217,44.3,14.1,"Newton County, Georgia",33.544046,-83.855189
493,13219,61.4,9.5,"Oconee County, Georgia",33.834125,-83.437728
494,13221,52.0,12.4,"Oglethorpe County, Georgia",33.866806,-83.074081
495,13223,54.7,11.6,"Paulding County, Georgia",33.920903,-84.866979
496,13225,41.8,11.0,"Peach County, Georgia",32.571324,-83.831978
497,13227,61.8,12.3,"Pickens County, Georgia",34.456621,-84.490256
498,13229,50.9,12.1,"Pierce County, Georgia",31.353988,-82.210427
499,13231,56.5,9.2,"Pike County, Georgia",33.090769,-84.386627
500,13233,50.5,13.3,"Polk County, Georgia",33.995961,-85.186826
501,13235,40.6,12.6,"Pulaski County, Georgia",32.238794,-83.481855
502,13237,56.0,11.1,"Putnam County, Georgia",33.321061,-83.37179
503,13239,41.4,10.5,"Quitman County, Georgia",31.861487,-85.009317
504,13241,53.7,13.9,"Rabun County, Georgia",34.883026,-83.404735
505,13243,35.2,12.8,"Randolph County, Georgia",31.762651,-84.752311
506,13245,35.2,13.2,"Richmond County, Georgia",33.361487,-82.074998
507,13247,45.5,12.6,"Rockdale County, Georgia",33.652081,-84.02637
508,13249,53.2,13.1,"Schley County, Georgia",32.263441,-84.322724
509,13251,44.9,12.6,"Screven County, Georgia",32.744751,-81.617585
510,13253,43.7,12.0,"Seminole County, Georgia",30.933894,-84.867592
511,13255,43.6,13.7,"Spalding County, Georgia",33.262389,-84.286067
512,13257,54.0,10.9,"Stephens County, Georgia",34.552914,-83.290216
513,13259,26.6,12.6,"Stewart County, Georgia",32.073225,-84.834912
514,13261,39.0,9.7,"Sumter County, Georgia",32.042203,-84.204283
515,13263,46.0,12.1,"Talbot County, Georgia",32.704603,-84.530029
516,13265,34.6,11.5,"Taliaferro County, Georgia",33.559314,-82.875208
517,13267,42.6,13.7,"Tattnall County, Georgia",32.043768,-82.059208
518,13269,42.5,10.6,"Taylor County, Georgia",32.554667,-84.251426
519,13271,37.7,10.0,"Telfair County, Georgia",31.913639,-82.931062
520,13273,39.1,11.7,"Terrell County, Georgia",31.777191,-84.439446
521,13275,45.2,12.7,"Thomas County, Georgia",30.864616,-83.919783
522,13277,44.8,8.9,"Tift County, Georgia",31.457003,-83.525931
523,13279,50.3,11.7,"Toombs County, Georgia",32.126698,-82.332071
524,13281,58.1,8.6,"Towns County, Georgia",34.90265,-83.732158
525,13283,41.7,11.5,"Treutlen County, Georgia",32.409586,-82.570882
526,13285,42.9,12.2,"Troup County, Georgia",33.034482,-85.02836
527,13287,45.0,9.6,"Turner County, Georgia",31.718232,-83.628567
528,13289,43.2,10.9,"Twiggs County, Georgia",32.665847,-83.425879
529,13291,58.9,11.5,"Union County, Georgia",34.83377,-83.989573
530,13293,45.9,12.5,"Upson County, Georgia",32.881837,-84.292281
531,13295,51.1,13.9,"Walker County, Georgia",34.735827,-85.305385
532,13297,56.1,10.0,"Walton County, Georgia",33.782649,-83.734215
533,13299,48.4,12.7,"Ware County, Georgia",31.050881,-82.421507
534,13301,40.7,14.3,"Warren County, Georgia",33.419169,-82.688012
535,13303,40.9,10.6,"Washington County, Georgia",32.971848,-82.798112
536,13305,48.1,12.2,"Wayne County, Georgia",31.547845,-81.912376
537,13307,45.9,8.0,"Webster County, Georgia",32.046554,-84.553218
538,13309,35.3,10.3,"Wheeler County, Georgia",32.109276,-82.738701
539,13311,60.4,11.1,"White County, Georgia",34.643677,-83.743713
540,13313,52.5,11.5,"Whitfield County, Georgia",34.801726,-84.968541
541,13315,40.1,12.0,"Wilcox County, Georgia",31.962717,-83.438262
542,13317,42.8,13.1,"Wilkes County, Georgia",33.77904,-82.747922
543,13319,43.6,11.2,"Wilkinson County, Georgia",32.804321,-83.175587
544,13321,49.1,13.1,"Worth County, Georgia",31.551773,-83.84996
545,15001,47.6,11.4,"Hawaii County, Hawaii",19.597764,-155.502443
546,15003,50.2,8.7,"Honolulu County, Hawaii",21.461364,-158.201976
547,15005,36.7,15.6,"Kalawao County, Hawaii",21.218764,-156.97401
548,15007,50.3,9.8,"Kauai County, Hawaii",22.012038,-159.705965
549,15009,49.9,11.7,"Maui County, Hawaii",20.855931,-156.60155
550,16001,52.8,12.1,"Ada County, Idaho",43.447861,-116.244456
551,16003,58.2,17.0,"Adams County, Idaho",44.884583,-116.431873
552,16005,51.3,13.4,"Bannock County, Idaho",42.692939,-112.228986
553,16007,65.0,9.4,"Bear Lake County, Idaho",42.285833,-111.327445
554,16009,55.4,13.6,"Benewah County, Idaho",47.218451,-116.633541
555,16011,58.6,11.2,"Bingham County, Idaho",43.216357,-112.399206
556,16013,54.9,15.3,"Blaine County, Idaho",43.394482,-113.95529
557,16015,57.4,15.1,"Boise County, Idaho",43.987275,-115.715111
558,16017,56.8,15.0,"Bonner County, Idaho",48.312512,-116.59694
559,16019,56.6,12.6,"Bonneville County, Idaho",43.395171,-111.621878
560,16021,60.0,12.4,"Boundary County, Idaho",48.773065,-116.524619
561,16023,57.0,14.2,"Butte County, Idaho",43.6851,-113.177627
562,16025,54.9,15.0,"Camas County, Idaho",43.463396,-114.804427
563,16027,53.1,12.4,"Canyon County, Idaho",43.623051,-116.708527
564,16029,67.9,9.1,"Caribou County, Idaho",42.786273,-111.544172
565,16031,60.6,10.0,"Cassia County, Idaho",42.288635,-113.605498
566,16033,61.3,3.3,"Clark County, Idaho",44.286251,-112.36112
567,16035,55.2,14.3,"Clearwater County, Idaho",46.67257,-115.6535
568,16037,63.6,13.3,"Custer County, Idaho",44.273341,-114.252251
569,16039,60.0,9.5,"Elmore County, Idaho",43.394826,-115.470751
570,16041,64.2,8.4,"Franklin County, Idaho",42.173589,-111.822955
571,16043,65.1,9.2,"Fremont County, Idaho",44.218091,-111.484429
572,16045,50.0,14.9,"Gem County, Idaho",44.061473,-116.398784
573,16047,58.9,12.7,"Gooding County, Idaho",42.973185,-114.82142
574,16049,58.7,13.5,"Idaho County, Idaho",45.849237,-115.467376
575,16051,60.2,9.7,"Jefferson County, Idaho",43.796965,-112.318588
576,16053,60.4,8.9,"Jerome County, Idaho",42.691172,-114.263009
577,16055,55.1,14.0,"Kootenai County, Idaho",47.677113,-116.694918
578,16057,45.2,7.6,"Latah County, Idaho",46.81892,-116.730974
579,16059,59.4,11.6,"Lemhi County, Idaho",44.928789,-113.887841
580,16061,54.8,15.0,"Lewis County, Idaho",46.236328,-116.42376
581,16063,57.0,10.5,"Lincoln County, Idaho",42.986181,-114.153899
582,16065,55.4,3.2,"Madison County, Idaho",43.789709,-111.65655
583,16067,59.6,11.2,"Minidoka County, Idaho",42.856937,-113.64001
584,16069,50.8,14.5,"Nez Perce County, Idaho",46.333766,-116.760903
585,16071,63.2,5.8,"Oneida County, Idaho",42.18389,-112.520465
586,16073,51.5,11.7,"Owyhee County, Idaho",42.593063,-116.142655
587,16075,56.3,12.2,"Payette County, Idaho",44.00274,-116.748655
588,16077,56.4,14.4,"Power County, Idaho",42.694126,-112.844407
589,16079,55.0,14.6,"Shoshone County, Idaho",47.347694,-115.885092
590,16081,54.3,14.0,"Teton County, Idaho",43.760994,-111.211765
591,16083,55.9,12.4,"Twin Falls County, Idaho",42.352309,-114.665639
592,16085,49.7,19.7,"Valley County, Idaho",44.771532,-115.637875
593,16087,55.7,13.7,"Washington County, Idaho",44.448213,-116.79783
594,17001,52.9,11.4,"Adams County, Illinois",39.986053,-91.194961
595,17003,39.3,14.2,"Alexander County, Illinois",37.183683,-89.349506
596,17005,49.1,12.3,"Bond County, Illinois",38.885924,-89.436592
597,17007,55.1,9.5,"Boone County, Illinois",42.318983,-88.824295
598,17009,40.7,11.0,"Brown County, Illinois",39.962069,-90.75031
599,17011,55.7,11.4,"Bureau County, Illinois",41.401304,-89.528377
600,17013,60.5,7.5,"Calhoun County, Illinois",39.164262,-90.666295
601,17015,56.4,11.2,"Carroll County, Illinois",42.059084,-89.926485
602,17017,50.7,12.2,"Cass County, Illinois",39.969202,-90.245705
603,17019,39.7,8.7,"Champaign County, Illinois",40.13915,-88.197201
604,17021,50.1,14.8,"Christian County, Illinois",39.545524,-89.279593
605,17023,55.5,13.2,"Clark County, Illinois",39.332364,-87.791687
606,17025,56.4,12.7,"Clay County, Illinois",38.747312,-88.483789
607,17027,52.1,9.9,"Clinton County, Illinois",38.606423,-89.423136
608,17029,42.8,10.5,"Coles County, Illinois",39.51368,-88.220782
609,17031,41.9,8.7,"Cook County, Illinois",41.894294,-87.645455
610,17033,51.3,13.5,"Crawford County, Illinois",39.00373,-87.757172
611,17035,54.8,13.4,"Cumberland County, Illinois",39.273121,-88.240619
612,17037,42.5,9.1,"DeKalb County, Illinois",41.894613,-88.768991
613,17039,56.2,13.2,"De Witt County, Illinois",40.181499,-88.901853
614,17041,55.7,10.7,"Douglas County, Illinois",39.766078,-88.222866
615,17043,55.2,8.2,"DuPage County, Illinois",41.852058,-88.086038
616,17045,56.1,12.4,"Edgar County, Illinois",39.679037,-87.74711
617,17047,54.3,11.8,"Edwards County, Illinois",38.417095,-88.047941
618,17049,53.3,11.1,"Effingham County, Illinois",39.047694,-88.592786
619,17051,49.1,11.8,"Fayette County, Illinois",39.001125,-89.017923
620,17053,52.1,12.2,"Ford County, Illinois",40.594423,-88.224746
621,17055,48.9,14.2,"Franklin County, Illinois",37.991848,-88.926246
622,17057,48.8,14.5,"Fulton County, Illinois",40.465688,-90.206793
623,17059,56.2,12.1,"Gallatin County, Illinois",37.768677,-88.227964
624,17061,51.3,13.9,"Greene County, Illinois",39.355444,-90.387757
625,17063,55.8,9.8,"Grundy County, Illinois",41.29241,-88.401055
626,17065,60.7,9.0,"Hamilton County, Illinois",38.085226,-88.539005
627,17067,58.0,11.3,"Hancock County, Illinois",40.405792,-91.167988
628,17069,48.3,16.4,"Hardin County, Illinois",37.517852,-88.266148
629,17071,54.5,12.9,"Henderson County, Illinois",40.815141,-90.93848
630,17073,58.3,10.5,"Henry County, Illinois",41.350021,-90.130838
631,17075,55.1,11.4,"Iroquois County, Illinois",40.748867,-87.833601
632,17077,38.8,9.4,"Jackson County, Illinois",37.786096,-89.381212
633,17079,58.8,10.7,"Jasper County, Illinois",39.004874,-88.150763
634,17081,49.6,14.3,"Jefferson County, Illinois",38.30078,-88.92421
635,17083,54.0,11.7,"Jersey County, Illinois",39.080192,-90.361365
636,17085,60.5,10.8,"Jo Daviess County, Illinois",42.362391,-90.211471
637,17087,50.4,11.4,"Johnson County, Illinois",37.460815,-88.882962
638,17089,53.9,9.0,"Kane County, Illinois",41.939594,-88.42804
639,17091,47.1,10.4,"Kankakee County, Illinois",41.139494,-87.861125
640,17093,59.2,9.3,"Kendall County, Illinois",41.58814,-88.430626
641,17095,43.2,14.3,"Knox County, Illinois",40.930941,-90.213761
642,17097,54.9,8.7,"Lake County, Illinois",42.326444,-87.436118
643,17099,50.5,11.8,"LaSalle County, Illinois",41.343341,-88.885931
644,17101,45.6,12.1,"Lawrence County, Illinois",38.718954,-87.730221
645,17103,51.1,11.7,"Lee County, Illinois",41.747442,-89.299351
646,17105,49.9,12.3,"Livingston County, Illinois",40.894376,-88.552852
647,17107,47.6,12.2,"Logan County, Illinois",40.12907,-89.365308
648,17109,40.5,8.9,"McDonough County, Illinois",40.455789,-90.677579
649,17111,57.5,9.5,"McHenry County, Illinois",42.324298,-88.452245
650,17113,48.0,8.7,"McLean County, Illinois",40.494559,-88.844539
651,17115,47.3,13.7,"Macon County, Illinois",39.860237,-88.961529
652,17117,54.1,12.7,"Macoupin County, Illinois",39.2659,-89.926344
653,17119,49.6,12.4,"Madison County, Illinois",38.827082,-89.900195
654,17121,52.3,13.6,"Marion County, Illinois",38.648396,-88.920221
655,17123,56.0,10.9,"Marshall County, Illinois",41.031119,-89.342371
656,17125,54.1,13.2,"Mason County, Illinois",40.236993,-89.913575
657,17127,52.0,12.8,"Massac County, Illinois",37.216119,-88.705658
658,17129,60.1,10.7,"Menard County, Illinois",40.022569,-89.794133
659,17131,59.7,10.2,"Mercer County, Illinois",41.204791,-90.741433
660,17133,62.9,8.9,"Monroe County, Illinois",38.277983,-90.179078
661,17135,50.5,13.6,"Montgomery County, Illinois",39.228092,-89.478007
662,17137,48.1,13.4,"Morgan County, Illinois",39.716806,-90.202277
663,17139,58.4,12.2,"Moultrie County, Illinois",39.636896,-88.625726
664,17141,55.1,11.2,"Ogle County, Illinois",42.041884,-89.320176
665,17143,45.7,11.8,"Peoria County, Illinois",40.785999,-89.767358
666,17145,45.6,13.0,"Perry County, Illinois",38.084385,-89.368487
667,17147,62.7,9.9,"Piatt County, Illinois",40.009056,-88.592328
668,17149,55.5,12.8,"Pike County, Illinois",39.625106,-90.889034
669,17151,47.8,15.6,"Pope County, Illinois",37.417169,-88.542374
670,17153,45.9,12.9,"Pulaski County, Illinois",37.215615,-89.127755
671,17155,60.7,10.2,"Putnam County, Illinois",41.19894,-89.298386
672,17157,46.5,11.7,"Randolph County, Illinois",38.056515,-89.82121
673,17159,50.9,15.0,"Richland County, Illinois",38.71155,-88.085698
674,17161,48.0,13.1,"Rock Island County, Illinois",41.468404,-90.572203
675,17163,45.8,11.2,"St. Clair County, Illinois",38.470198,-89.928546
676,17165,50.0,14.8,"Saline County, Illinois",37.751653,-88.545031
677,17167,47.6,13.4,"Sangamon County, Illinois",39.756378,-89.662311
678,17169,49.0,15.9,"Schuyler County, Illinois",40.156905,-90.613464
679,17171,53.7,15.1,"Scott County, Illinois",39.63698,-90.477759
680,17173,59.9,10.7,"Shelby County, Illinois",39.384926,-88.798862
681,17175,53.0,11.5,"Stark County, Illinois",41.096908,-89.797411
682,17177,51.7,12.7,"Stephenson County, Illinois",42.349726,-89.665994
683,17179,56.7,11.6,"Tazewell County, Illinois",40.508074,-89.51626
684,17181,53.3,13.3,"Union County, Illinois",37.475104,-89.252875
685,17183,45.7,15.2,"Vermilion County, Illinois",40.18674,-87.726772
686,17185,56.5,13.6,"Wabash County, Illinois",38.445821,-87.839167
687,17187,51.4,9.4,"Warren County, Illinois",40.850441,-90.620223
688,17189,56.2,10.0,"Washington County, Illinois",38.353141,-89.417187
689,17191,60.2,11.2,"Wayne County, Illinois",38.431948,-88.432129
690,17193,56.3,12.8,"White County, Illinois",38.087372,-88.178585
691,17195,53.0,12.4,"Whiteside County, Illinois",41.750571,-89.910957
692,17197,54.2,8.9,"Will County, Illinois",41.448474,-87.978456
693,17199,52.4,13.8,"Williamson County, Illinois",37.730353,-88.930018
694,17201,47.9,12.5,"Winnebago County, Illinois",42.337396,-89.161205
695,17203,59.1,8.2,"Woodford County, Illinois",40.789596,-89.210301
696,18001,56.8,9.6,"Adams County, Indiana",40.745733,-84.936131
697,18003,49.1,12.2,"Allen County, Indiana",41.091855,-85.07223
698,18005,54.2,12.8,"Bartholomew County, Indiana",39.205843,-85.897999
699,18007,52.7,14.1,"Benton County, Indiana",40.608253,-87.315479
700,18009,54.6,13.9,"Blackford County, Indiana",40.472672,-85.32373
701,18011,61.5,10.7,"Boone County, Indiana",40.050892,-86.469014
702,18013,56.2,14.8,"Brown County, Indiana",39.192585,-86.23941
703,18015,56.5,13.0,"Carroll County, Indiana",40.58498,-86.565141
704,18017,52.7,12.4,"Cass County, Indiana",40.753799,-86.355169
705,18019,48.3,14.9,"Clark County, Indiana",38.476217,-85.711122
706,18021,57.9,12.7,"Clay County, Indiana",39.393951,-87.115837
707,18023,53.1,13.2,"Clinton County, Indiana",40.305944,-86.477567
708,18025,50.9,15.1,"Crawford County, Indiana",38.289433,-86.440871
709,18027,58.0,10.6,"Daviess County, Indiana",38.696155,-87.076988
710,18029,57.1,11.3,"Dearborn County, Indiana",39.151491,-84.97346
711,18031,55.1,13.7,"Decatur County, Indiana",39.30598,-85.499831
712,18033,53.5,13.2,"DeKalb County, Indiana",41.401189,-85.000185
713,18035,41.7,12.1,"Delaware County, Indiana",40.227165,-85.398856
714,18037,58.5,9.6,"Dubois County, Indiana",38.373344,-86.873385
715,18039,51.9,12.0,"Elkhart County, Indiana",41.600693,-85.863986
716,18041,50.6,17.8,"Fayette County, Indiana",39.639655,-85.185032
717,18043,49.7,12.9,"Floyd County, Indiana",38.317937,-85.911474
718,18045,52.8,15.2,"Fountain County, Indiana",40.121282,-87.234806
719,18047,60.6,10.4,"Franklin County, Indiana",39.409762,-85.066964
720,18049,53.8,15.2,"Fulton County, Indiana",41.050384,-86.265006
721,18051,54.4,14.1,"Gibson County, Indiana",38.317413,-87.580566
722,18053,46.0,14.2,"Grant County, Indiana",40.515758,-85.654946
723,18055,53.4,15.9,"Greene County, Indiana",39.0486,-87.005245
724,18057,62.0,9.5,"Hamilton County, Indiana",40.04987,-86.020586
725,18059,56.4,12.1,"Hancock County, Indiana",39.822604,-85.772904
726,18061,51.7,16.5,"Harrison County, Indiana",38.18644,-86.103681
727,18063,57.7,11.6,"Hendricks County, Indiana",39.768749,-86.510287
728,18065,47.6,16.9,"Henry County, Indiana",39.929576,-85.397338
729,18067,51.2,15.6,"Howard County, Indiana",40.483537,-86.114118
730,18069,55.7,10.7,"Huntington County, Indiana",40.826394,-85.478598
731,18071,54.5,14.2,"Jackson County, Indiana",38.911957,-86.042516
732,18073,54.5,11.1,"Jasper County, Indiana",41.017688,-87.118814
733,18075,52.9,13.5,"Jay County, Indiana",40.434972,-85.00338
734,18077,49.6,15.3,"Jefferson County, Indiana",38.783604,-85.44009
735,18079,52.3,15.3,"Jennings County, Indiana",38.996234,-85.628111
736,18081,55.8,12.2,"Johnson County, Indiana",39.495986,-86.0946
737,18083,46.9,15.0,"Knox County, Indiana",38.688663,-87.420182
738,18085,58.3,10.8,"Kosciusko County, Indiana",41.244293,-85.861575
739,18087,60.6,8.0,"LaGrange County, Indiana",41.642468,-85.426302
740,18089,44.6,11.6,"Lake County, Indiana",41.472239,-87.374337
741,18091,48.0,14.7,"LaPorte County, Indiana",41.549011,-86.744729
742,18093,56.2,16.0,"Lawrence County, Indiana",38.839815,-86.48782
743,18095,48.1,16.0,"Madison County, Indiana",40.166203,-85.722454
744,18097,39.1,13.4,"Marion County, Indiana",39.782976,-86.135794
745,18099,53.8,12.6,"Marshall County, Indiana",41.325003,-86.269036
746,18101,51.3,18.7,"Martin County, Indiana",38.705322,-86.801847
747,18103,51.0,13.0,"Miami County, Indiana",40.772881,-86.044259
748,18105,35.6,10.7,"Monroe County, Indiana",39.160751,-86.523325
749,18107,54.3,13.8,"Montgomery County, Indiana",40.040296,-86.892715
750,18109,55.1,13.9,"Morgan County, Indiana",39.482646,-86.447457
751,18111,57.0,12.3,"Newton County, Indiana",40.962399,-87.402172
752,18113,54.3,13.4,"Noble County, Indiana",41.400794,-85.41785
753,18115,58.9,9.0,"Ohio County, Indiana",38.940527,-84.964299
754,18117,55.6,13.7,"Orange County, Indiana",38.547381,-86.489257
755,18119,56.9,14.3,"Owen County, Indiana",39.317339,-86.838845
756,18121,51.3,16.4,"Parke County, Indiana",39.77425,-87.19695
757,18123,52.7,14.3,"Perry County, Indiana",38.081436,-86.62654
758,18125,59.3,11.6,"Pike County, Indiana",38.397898,-87.232532
759,18127,52.9,11.1,"Porter County, Indiana",41.509922,-87.071308
760,18129,60.6,11.0,"Posey County, Indiana",38.027614,-87.868653
761,18131,54.9,13.7,"Pulaski County, Indiana",41.045272,-86.692538
762,18133,45.6,13.0,"Putnam County, Indiana",39.665545,-86.853325
763,18135,54.2,12.7,"Randolph County, Indiana",40.164414,-85.005004
764,18137,58.2,10.4,"Ripley County, Indiana",39.10023,-85.260541
765,18139,53.8,13.9,"Rush County, Indiana",39.622312,-85.466527
766,18141,46.0,11.6,"St. Joseph County, Indiana",41.617699,-86.288159
767,18143,53.9,13.2,"Scott County, Indiana",38.679431,-85.751898
768,18145,51.4,14.6,"Shelby County, Indiana",39.524135,-85.792174
769,18147,61.0,9.5,"Spencer County, Indiana",38.009789,-87.010645
770,18149,51.5,14.1,"Starke County, Indiana",41.28322,-86.64757
771,18151,55.1,12.2,"Steuben County, Indiana",41.643437,-85.002467
772,18153,50.5,15.7,"Sullivan County, Indiana",39.089225,-87.415843
773,18155,55.7,14.8,"Switzerland County, Indiana",38.825846,-85.029679
774,18157,40.5,10.2,"Tippecanoe County, Indiana",40.38926,-86.893943
775,18159,57.6,12.3,"Tipton County, Indiana",40.310229,-86.056207
776,18161,51.0,16.3,"Union County, Indiana",39.623111,-84.925152
777,18163,45.8,14.9,"Vanderburgh County, Indiana",38.02007,-87.586166
778,18165,50.1,17.6,"Vermillion County, Indiana",39.854045,-87.462071
779,18167,42.9,14.2,"Vigo County, Indiana",39.429143,-87.390375
780,18169,53.8,11.2,"Wabash County, Indiana",40.843717,-85.795175
781,18171,61.0,11.9,"Warren County, Indiana",40.352658,-87.375847
782,18173,60.8,10.9,"Warrick County, Indiana",38.097764,-87.272023
783,18175,53.6,14.5,"Washington County, Indiana",38.600613,-86.104751
784,18177,47.9,15.3,"Wayne County, Indiana",39.863091,-85.006735
785,18179,57.8,11.4,"Wells County, Indiana",40.735273,-85.212974
786,18181,57.9,12.5,"White County, Indiana",40.75095,-86.864293
787,18183,57.4,12.4,"Whitley County, Indiana",41.136426,-85.501892
788,19001,57.2,11.6,"Adair County, Iowa",41.328528,-94.478164
789,19003,63.1,7.1,"Adams County, Iowa",41.021656,-94.696906
790,19005,61.1,7.9,"Allamakee County, Iowa",43.274964,-91.382751
791,19007,54.8,13.0,"Appanoose County, Iowa",40.744683,-92.870345
792,19009,59.3,9.1,"Audubon County, Iowa",41.679178,-94.904312
793,19011,60.5,9.9,"Benton County, Iowa",42.092547,-92.05763
794,19013,45.8,10.8,"Black Hawk County, Iowa",42.472888,-92.306059
795,19015,54.3,11.3,"Boone County, Iowa",42.038601,-93.939138
796,19017,57.4,6.7,"Bremer County, Iowa",42.78089,-92.327586
797,19019,58.1,9.6,"Buchanan County, Iowa",42.470328,-91.838666
798,19021,53.8,8.4,"Buena Vista County, Iowa",42.741522,-95.141433
799,19023,63.5,7.7,"Butler County, Iowa",42.734708,-92.780066
800,19025,55.3,13.0,"Calhoun County, Iowa",42.38617,-94.643683
801,19027,57.3,8.8,"Carroll County, Iowa",42.039492,-94.867647
802,19029,57.9,11.6,"Cass County, Iowa",41.333824,-94.933302
803,19031,60.5,11.1,"Cedar County, Iowa",41.772355,-91.13219
804,19033,51.1,12.7,"Cerro Gordo County, Iowa",43.075171,-93.251266
805,19035,55.5,11.6,"Cherokee County, Iowa",42.742738,-95.633262
806,19037,59.6,8.7,"Chickasaw County, Iowa",43.059741,-92.31721
807,19039,55.2,10.9,"Clarke County, Iowa",41.029191,-93.784096
808,19041,55.6,10.4,"Clay County, Iowa",43.079822,-95.149726
809,19043,56.6,11.1,"Clayton County, Iowa",42.840998,-91.323511
810,19045,52.2,13.0,"Clinton County, Iowa",41.898073,-90.534243
811,19047,57.3,8.2,"Crawford County, Iowa",42.043119,-95.38909
812,19049,62.1,8.9,"Dallas County, Iowa",41.685321,-94.040707
813,19051,61.3,8.1,"Davis County, Iowa",40.748089,-92.410345
814,19053,49.0,11.6,"Decatur County, Iowa",40.736379,-93.78458
815,19055,58.6,9.3,"Delaware County, Iowa",42.473003,-91.359443
816,19057,49.6,13.6,"Des Moines County, Iowa",40.915339,-91.186925
817,19059,59.9,11.7,"Dickinson County, Iowa",43.389611,-95.196057
818,19061,53.5,8.7,"Dubuque County, Iowa",42.463481,-90.878771
819,19063,54.8,11.3,"Emmet County, Iowa",43.377984,-94.66937
820,19065,53.0,10.8,"Fayette County, Iowa",42.86445,-91.839373
821,19067,57.1,10.4,"Floyd County, Iowa",43.052741,-92.787367
822,19069,55.6,9.3,"Franklin County, Iowa",42.736549,-93.271425
823,19071,57.6,12.7,"Fremont County, Iowa",40.743726,-95.599516
824,19073,61.2,8.8,"Greene County, Iowa",42.042494,-94.388703
825,19075,61.9,9.9,"Grundy County, Iowa",42.403323,-92.790261
826,19077,59.3,10.5,"Guthrie County, Iowa",41.683573,-94.501272
827,19079,59.4,8.9,"Hamilton County, Iowa",42.390768,-93.709198
828,19081,60.4,7.5,"Hancock County, Iowa",43.075411,-93.743697
829,19083,55.6,9.9,"Hardin County, Iowa",42.389955,-93.241081
830,19085,56.8,10.7,"Harrison County, Iowa",41.688584,-95.827149
831,19087,51.8,12.5,"Henry County, Iowa",40.985864,-91.54427
832,19089,56.5,11.0,"Howard County, Iowa",43.365313,-92.321908
833,19091,57.2,12.3,"Humboldt County, Iowa",42.782221,-94.202775
834,19093,62.3,10.7,"Ida County, Iowa",42.39186,-95.507421
835,19095,61.3,9.4,"Iowa County, Iowa",41.683918,-92.059123
836,19097,56.6,11.2,"Jackson County, Iowa",42.164281,-90.574597
837,19099,53.4,14.2,"Jasper County, Iowa",41.685686,-93.052971
838,19101,48.1,10.8,"Jefferson County, Iowa",41.00688,-91.967137
839,19103,44.1,8.1,"Johnson County, Iowa",41.668737,-91.588812
840,19105,57.0,11.1,"Jones County, Iowa",42.125118,-91.116914
841,19107,57.1,11.8,"Keokuk County, Iowa",41.331182,-92.167721
842,19109,61.3,9.4,"Kossuth County, Iowa",43.212478,-94.213983
843,19111,51.1,14.0,"Lee County, Iowa",40.647588,-91.477157
844,19113,51.8,11.5,"Linn County, Iowa",42.077951,-91.597674
845,19115,56.4,9.2,"Louisa County, Iowa",41.218211,-91.256994
846,19117,55.2,14.4,"Lucas County, Iowa",41.033344,-93.331467
847,19119,67.2,6.0,"Lyon County, Iowa",43.38358,-96.207201
848,19121,62.1,8.4,"Madison County, Iowa",41.330622,-94.015184
849,19123,53.0,13.4,"Mahaska County, Iowa",41.330797,-92.636366
850,19125,56.5,10.4,"Marion County, Iowa",41.331455,-93.093849
851,19127,54.8,10.8,"Marshall County, Iowa",42.041691,-92.981452
852,19129,57.1,9.2,"Mills County, Iowa",41.033703,-95.619101
853,19131,59.6,8.6,"Mitchell County, Iowa",43.348564,-92.784466
854,19133,56.4,10.5,"Monona County, Iowa",42.049432,-95.956566
855,19135,53.9,11.6,"Monroe County, Iowa",41.028847,-92.869642
856,19137,55.3,12.1,"Montgomery County, Iowa",41.021735,-95.15779
857,19139,54.4,11.6,"Muscatine County, Iowa",41.483776,-91.118699
858,19141,60.2,7.6,"O'Brien County, Iowa",43.083746,-95.625624
859,19143,58.9,11.8,"Osceola County, Iowa",43.378542,-95.633788
860,19145,54.5,11.1,"Page County, Iowa",40.73909,-95.14429
861,19147,57.2,9.9,"Palo Alto County, Iowa",43.075854,-94.667297
862,19149,58.7,10.2,"Plymouth County, Iowa",42.737585,-96.215864
863,19151,58.0,10.6,"Pocahontas County, Iowa",42.734033,-94.678279
864,19153,50.2,12.3,"Polk County, Iowa",41.684281,-93.56972
865,19155,50.2,12.9,"Pottawattamie County, Iowa",41.340184,-95.544905
866,19157,49.0,10.6,"Poweshiek County, Iowa",41.684526,-92.522882
867,19159,58.3,11.6,"Ringgold County, Iowa",40.735334,-94.244251
868,19161,58.8,10.0,"Sac County, Iowa",42.387526,-95.105224
869,19163,50.9,11.5,"Scott County, Iowa",41.641679,-90.62229
870,19165,58.7,11.1,"Shelby County, Iowa",41.679014,-95.308917
871,19167,61.0,4.8,"Sioux County, Iowa",43.082854,-96.177929
872,19169,41.3,6.2,"Story County, Iowa",42.037538,-93.466093
873,19171,57.0,10.3,"Tama County, Iowa",42.074848,-92.529412
874,19173,62.6,10.0,"Taylor County, Iowa",40.737949,-94.697108
875,19175,52.2,12.9,"Union County, Iowa",41.02855,-94.245091
876,19177,60.3,9.3,"Van Buren County, Iowa",40.754117,-91.952943
877,19179,52.7,12.3,"Wapello County, Iowa",41.031263,-92.409482
878,19181,56.4,11.8,"Warren County, Iowa",41.336769,-93.564366
879,19183,56.9,10.8,"Washington County, Iowa",41.329401,-91.725052
880,19185,54.3,12.3,"Wayne County, Iowa",40.739983,-93.332613
881,19187,44.6,13.5,"Webster County, Iowa",42.434397,-94.179157
882,19189,59.0,7.8,"Winnebago County, Iowa",43.378124,-93.743488
883,19191,54.8,6.8,"Winneshiek County, Iowa",43.292989,-91.850788
884,19193,48.6,11.8,"Woodbury County, Iowa",42.39322,-96.053296
885,19195,55.0,11.6,"Worth County, Iowa",43.373491,-93.248533
886,19197,55.1,11.5,"Wright County, Iowa",42.733007,-93.734735
887,20001,50.5,14.0,"Allen County, Kansas",37.884229,-95.300945
888,20003,57.9,12.2,"Anderson County, Kansas",38.215114,-95.292046
889,20005,45.8,12.6,"Atchison County, Kansas",39.532544,-95.313398
890,20007,55.8,13.3,"Barber County, Kansas",37.222906,-98.685052
891,20009,54.3,12.6,"Barton County, Kansas",38.481239,-98.767837
892,20011,53.9,11.8,"Bourbon County, Kansas",37.8561,-94.850928
893,20013,57.8,13.5,"Brown County, Kansas",39.825931,-95.569905
894,20015,56.0,11.9,"Butler County, Kansas",37.773681,-96.838762
895,20017,57.5,11.1,"Chase County, Kansas",38.298553,-96.594064
896,20019,53.8,13.0,"Chautauqua County, Kansas",37.154259,-96.245396
897,20021,56.5,12.6,"Cherokee County, Kansas",37.169392,-94.845698
898,20023,58.8,11.2,"Cheyenne County, Kansas",39.789256,-101.727302
899,20025,55.1,13.4,"Clark County, Kansas",37.233831,-99.813869
900,20027,61.5,12.7,"Clay County, Kansas",39.344964,-97.168853
901,20029,48.4,13.7,"Cloud County, Kansas",39.487329,-97.64139
902,20031,60.6,12.6,"Coffey County, Kansas",38.23645,-95.729137
903,20033,56.6,11.8,"Comanche County, Kansas",37.189071,-99.254089
904,20035,51.6,13.6,"Cowley County, Kansas",37.234507,-96.837247
905,20037,43.8,12.1,"Crawford County, Kansas",37.505628,-94.853941
906,20039,52.1,18.4,"Decatur County, Kansas",39.783542,-100.459708
907,20041,57.2,13.0,"Dickinson County, Kansas",38.867735,-97.157943
908,20043,55.2,10.2,"Doniphan County, Kansas",39.788502,-95.147225
909,20045,39.9,8.8,"Douglas County, Kansas",38.896573,-95.290529
910,20047,61.4,9.4,"Edwards County, Kansas",37.883595,-99.304746
911,20049,63.8,9.5,"Elk County, Kansas",37.456026,-96.244642
912,20051,46.1,9.8,"Ellis County, Kansas",38.914596,-99.317329
913,20053,52.4,11.6,"Ellsworth County, Kansas",38.700845,-98.205355
914,20055,52.5,9.2,"Finney County, Kansas",38.049855,-100.739929
915,20057,53.9,9.9,"Ford County, Kansas",37.688365,-99.884734
916,20059,57.1,12.1,"Franklin County, Kansas",38.558019,-95.278962
917,20061,59.8,10.1,"Geary County, Kansas",39.002155,-96.768038
918,20063,68.8,8.6,"Gove County, Kansas",38.917239,-100.48736
919,20065,60.3,11.0,"Graham County, Kansas",39.349445,-99.880952
920,20067,61.2,6.4,"Grant County, Kansas",37.547537,-101.299362
921,20069,64.1,6.3,"Gray County, Kansas",37.744513,-100.451716
922,20071,62.7,5.1,"Greeley County, Kansas",38.480408,-101.805984
923,20073,55.0,16.0,"Greenwood County, Kansas",37.878659,-96.242232
924,20075,58.2,9.1,"Hamilton County, Kansas",37.995244,-101.793689
925,20077,57.7,10.5,"Harper County, Kansas",37.188184,-98.06659
926,20079,58.8,9.1,"Harvey County, Kansas",38.050144,-97.436707
927,20081,57.3,7.3,"Haskell County, Kansas",37.55855,-100.876869
928,20083,64.7,7.8,"Hodgeman County, Kansas",38.087493,-99.898407
929,20085,61.0,9.9,"Jackson County, Kansas",39.410989,-95.794509
930,20087,59.9,10.8,"Jefferson County, Kansas",39.239644,-95.375314
931,20089,62.5,11.3,"Jewell County, Kansas",39.77701,-98.222584
932,20091,56.8,10.5,"Johnson County, Kansas",38.883907,-94.82233
933,20093,61.2,8.1,"Kearny County, Kansas",37.994461,-101.308136
934,20095,55.3,11.6,"Kingman County, Kansas",37.552951,-98.144529
935,20097,58.0,7.7,"Kiowa County, Kansas",37.561231,-99.286539
936,20099,53.5,12.1,"Labette County, Kansas",37.191468,-95.297473
937,20101,60.4,6.5,"Lane County, Kansas",38.481286,-100.466185
938,20103,53.9,12.7,"Leavenworth County, Kansas",39.189511,-95.038977
939,20105,54.6,13.6,"Lincoln County, Kansas",39.047276,-98.214265
940,20107,60.2,9.5,"Linn County, Kansas",38.216549,-94.844932
941,20109,61.0,9.3,"Logan County, Kansas",38.91327,-101.157407
942,20111,46.5,11.1,"Lyon County, Kansas",38.455498,-96.161589
943,20113,59.7,9.9,"McPherson County, Kansas",38.395812,-97.647489
944,20115,57.3,10.2,"Marion County, Kansas",38.359647,-97.102771
945,20117,59.5,10.4,"Marshall County, Kansas",39.782709,-96.521243
946,20119,58.2,11.7,"Meade County, Kansas",37.243886,-100.360094
947,20121,58.8,12.8,"Miami County, Kansas",38.566772,-94.832963
948,20123,57.3,10.7,"Mitchell County, Kansas",39.393026,-98.207362
949,20125,52.6,12.9,"Montgomery County, Kansas",37.189537,-95.742403
950,20127,60.8,10.8,"Morris County, Kansas",38.687696,-96.644905
951,20129,53.5,9.9,"Morton County, Kansas",37.18525,-101.809516
952,20131,60.6,7.3,"Nemaha County, Kansas",39.791043,-96.005381
953,20133,52.4,14.6,"Neosho County, Kansas",37.564283,-95.315683
954,20135,62.0,8.4,"Ness County, Kansas",38.480437,-99.908745
955,20137,46.8,13.4,"Norton County, Kansas",39.783867,-99.899235
956,20139,57.6,12.8,"Osage County, Kansas",38.649706,-95.727275
957,20141,57.4,10.6,"Osborne County, Kansas",39.348649,-98.767876
958,20143,62.8,7.9,"Ottawa County, Kansas",39.137963,-97.654803
959,20145,46.5,18.2,"Pawnee County, Kansas",38.182873,-99.232154
960,20147,58.4,10.0,"Phillips County, Kansas",39.784506,-99.34215
961,20149,62.8,8.5,"Pottawatomie County, Kansas",39.382187,-96.337113
962,20151,52.1,12.3,"Pratt County, Kansas",37.647594,-98.74012
963,20153,63.7,9.2,"Rawlins County, Kansas",39.786198,-101.076738
964,20155,51.6,14.3,"Reno County, Kansas",37.948185,-98.078346
965,20157,57.1,10.9,"Republic County, Kansas",39.82891,-97.650921
966,20159,56.7,9.3,"Rice County, Kansas",38.347178,-98.201415
967,20161,39.9,7.0,"Riley County, Kansas",39.291211,-96.727489
968,20163,54.3,11.7,"Rooks County, Kansas",39.346006,-99.324492
969,20165,55.7,13.2,"Rush County, Kansas",38.523592,-99.309183
970,20167,59.6,12.1,"Russell County, Kansas",38.916839,-98.765638
971,20169,50.0,13.5,"Saline County, Kansas",38.786327,-97.650153
972,20171,63.4,7.8,"Scott County, Kansas",38.481877,-100.90636
973,20173,49.9,12.4,"Sedgwick County, Kansas",37.683807,-97.459451
974,20175,48.3,9.7,"Seward County, Kansas",37.180585,-100.854741
975,20177,49.3,13.9,"Shawnee County, Kansas",39.041805,-95.755664
976,20179,66.0,8.1,"Sheridan County, Kansas",39.350543,-100.441206
977,20181,55.1,10.8,"Sherman County, Kansas",39.351352,-101.719859
978,20183,61.4,8.8,"Smith County, Kansas",39.78466,-98.78543
979,20185,62.9,7.5,"Stafford County, Kansas",38.03563,-98.719889
980,20187,65.6,7.5,"Stanton County, Kansas",37.565932,-101.789383
981,20189,61.3,4.9,"Stevens County, Kansas",37.202356,-101.315796
982,20191,55.1,11.5,"Sumner County, Kansas",37.236663,-97.493349
983,20193,59.0,5.3,"Thomas County, Kansas",39.357706,-101.083439
984,20195,64.2,10.7,"Trego County, Kansas",38.921302,-99.865423
985,20197,61.4,10.1,"Wabaunsee County, Kansas",38.955154,-96.201262
986,20199,55.4,8.7,"Wallace County, Kansas",38.926626,-101.771103
987,20201,62.1,7.5,"Washington County, Kansas",39.776714,-97.095611
988,20203,60.5,9.3,"Wichita County, Kansas",38.481922,-101.347434
989,20205,55.0,13.6,"Wilson County, Kansas",37.558515,-95.745175
990,20207,51.7,16.1,"Woodson County, Kansas",37.888484,-95.757553
991,20209,42.0,12.8,"Wyandotte County, Kansas",39.115384,-94.763087
992,21001,52.9,11.2,"Adair County, Kentucky",37.105541,-85.281401
993,21003,57.7,11.9,"Allen County, Kentucky",36.75077,-86.192458
994,21005,56.2,16.6,"Anderson County, Kentucky",38.005396,-84.986417
995,21007,53.9,13.6,"Ballard County, Kentucky",37.05112,-89.009178
996,21009,53.8,13.7,"Barren County, Kentucky",36.963614,-85.92499
997,21011,51.8,12.5,"Bath County, Kentucky",38.152249,-83.737641
998,21013,46.1,16.0,"Bell County, Kentucky",36.72268,-83.681046
999,21015,58.4,10.5,"Boone County, Kentucky",38.974595,-84.731444
1000,21017,47.4,15.8,"Bourbon County, Kentucky",38.202562,-84.20986
1001,21019,52.4,14.6,"Boyd County, Kentucky",38.360004,-82.681406
1002,21021,48.1,13.8,"Boyle County, Kentucky",37.6182,-84.873016
1003,21023,55.3,13.8,"Bracken County, Kentucky",38.678523,-84.100355
1004,21025,46.5,13.7,"Breathitt County, Kentucky",37.521178,-83.322401
1005,21027,54.5,11.9,"Breckinridge County, Kentucky",37.778109,-86.432829
1006,21029,53.4,13.2,"Bullitt County, Kentucky",37.969572,-85.703036
1007,21031,54.7,11.0,"Butler County, Kentucky",37.207013,-86.682471
1008,21033,56.8,10.4,"Caldwell County, Kentucky",37.148643,-87.87051
1009,21035,45.0,11.5,"Calloway County, Kentucky",36.620978,-88.274086
1010,21037,47.4,12.8,"Campbell County, Kentucky",38.946981,-84.379583
1011,21039,57.0,12.3,"Carlisle County, Kentucky",36.857726,-88.975757
1012,21041,49.9,13.1,"Carroll County, Kentucky",38.668284,-85.124083
1013,21043,52.7,13.3,"Carter County, Kentucky",38.309555,-83.048821
1014,21045,57.7,11.6,"Casey County, Kentucky",37.321962,-84.92822
1015,21047,49.5,10.9,"Christian County, Kentucky",36.893388,-87.493554
1016,21049,52.6,14.3,"Clark County, Kentucky",37.970133,-84.144974
1017,21051,47.6,11.8,"Clay County, Kentucky",37.164466,-83.710763
1018,21053,48.8,13.6,"Clinton County, Kentucky",36.729124,-85.153499
1019,21055,56.2,13.7,"Crittenden County, Kentucky",37.358149,-88.10501
1020,21057,50.8,13.5,"Cumberland County, Kentucky",36.784227,-85.393499
1021,21059,51.9,13.5,"Daviess County, Kentucky",37.731671,-87.087139
1022,21061,58.0,10.2,"Edmonson County, Kentucky",37.227856,-86.217778
1023,21063,44.8,13.5,"Elliott County, Kentucky",38.116425,-83.097541
1024,21065,50.8,16.6,"Estill County, Kentucky",37.69246,-83.963927
1025,21067,42.9,12.3,"Fayette County, Kentucky",38.040157,-84.458443
1026,21069,56.9,13.5,"Fleming County, Kentucky",38.368431,-83.706152
1027,21071,50.7,13.5,"Floyd County, Kentucky",37.558283,-82.740337
1028,21073,46.4,16.0,"Franklin County, Kentucky",38.234919,-84.868786
1029,21075,45.1,12.4,"Fulton County, Kentucky",36.55262,-89.187723
1030,21077,52.1,16.7,"Gallatin County, Kentucky",38.760184,-84.862114
1031,21079,56.7,15.4,"Garrard County, Kentucky",37.630162,-84.545856
1032,21081,51.1,14.2,"Grant County, Kentucky",38.64921,-84.625946
1033,21083,53.3,12.4,"Graves County, Kentucky",36.723344,-88.649897
1034,21085,54.4,13.2,"Grayson County, Kentucky",37.458577,-86.344011
1035,21087,55.3,13.4,"Green County, Kentucky",37.269637,-85.561403
1036,21089,55.9,12.7,"Greenup County, Kentucky",38.563596,-82.933833
1037,21091,59.4,13.6,"Hancock County, Kentucky",37.843389,-86.792773
1038,21093,52.2,13.4,"Hardin County, Kentucky",37.695836,-85.963183
1039,21095,52.4,13.3,"Harlan County, Kentucky",36.859223,-83.221497
1040,21097,50.9,12.4,"Harrison County, Kentucky",38.443489,-84.332796
1041,21099,57.0,13.0,"Hart County, Kentucky",37.313856,-85.881995
1042,21101,50.7,14.9,"Henderson County, Kentucky",37.792542,-87.572577
1043,21103,53.8,12.5,"Henry County, Kentucky",38.451561,-85.120079
1044,21105,46.1,15.2,"Hickman County, Kentucky",36.675916,-88.97202
1045,21107,53.2,13.7,"Hopkins County, Kentucky",37.31107,-87.542196
1046,21109,57.0,15.0,"Jackson County, Kentucky",37.40332,-84.020686
1047,21111,43.6,13.7,"Jefferson County, Kentucky",38.189533,-85.657624
1048,21113,53.4,12.3,"Jessamine County, Kentucky",37.873291,-84.58396
1049,21115,55.0,11.6,"Johnson County, Kentucky",37.84926,-82.830639
1050,21117,47.3,13.4,"Kenton County, Kentucky",38.930477,-84.533492
1051,21119,48.8,12.7,"Knott County, Kentucky",37.354703,-82.949138
1052,21121,46.9,14.2,"Knox County, Kentucky",36.887476,-83.85563
1053,21123,52.1,13.6,"Larue County, Kentucky",37.545518,-85.697209
1054,21125,51.9,14.0,"Laurel County, Kentucky",37.113268,-84.119395
1055,21127,57.6,11.8,"Lawrence County, Kentucky",38.074459,-82.738305
1056,21129,44.2,13.1,"Lee County, Kentucky",37.605383,-83.718497
1057,21131,50.1,12.7,"Leslie County, Kentucky",37.087846,-83.388616
1058,21133,56.2,11.4,"Letcher County, Kentucky",37.118503,-82.861175
1059,21135,56.7,13.1,"Lewis County, Kentucky",38.532051,-83.373303
1060,21137,50.1,15.6,"Lincoln County, Kentucky",37.457257,-84.658074
1061,21139,62.9,8.8,"Livingston County, Kentucky",37.209517,-88.363426
1062,21141,50.9,14.7,"Logan County, Kentucky",36.859829,-86.881436
1063,21143,48.1,19.1,"Lyon County, Kentucky",37.023976,-88.083391
1064,21145,48.6,15.3,"McCracken County, Kentucky",37.053688,-88.712378
1065,21147,46.5,14.5,"McCreary County, Kentucky",36.731136,-84.491052
1066,21149,62.5,11.6,"McLean County, Kentucky",37.530575,-87.262931
1067,21151,43.5,12.1,"Madison County, Kentucky",37.723528,-84.277008
1068,21153,55.9,10.7,"Magoffin County, Kentucky",37.698954,-83.069716
1069,21155,48.8,14.4,"Marion County, Kentucky",37.552247,-85.269242
1070,21157,59.7,11.6,"Marshall County, Kentucky",36.882017,-88.332752
1071,21159,52.2,13.5,"Martin County, Kentucky",37.796774,-82.506623
1072,21161,51.5,12.1,"Mason County, Kentucky",38.594068,-83.828052
1073,21163,56.4,12.3,"Meade County, Kentucky",37.967476,-86.200863
1074,21165,53.1,14.0,"Menifee County, Kentucky",37.950715,-83.597345
1075,21167,55.6,13.7,"Mercer County, Kentucky",37.812085,-84.879695
1076,21169,57.2,11.8,"Metcalfe County, Kentucky",36.990394,-85.629554
1077,21171,55.6,13.2,"Monroe County, Kentucky",36.714077,-85.713508
1078,21173,48.7,17.1,"Montgomery County, Kentucky",38.038138,-83.912338
1079,21175,51.5,16.0,"Morgan County, Kentucky",37.92294,-83.258944
1080,21177,54.1,12.6,"Muhlenberg County, Kentucky",37.213816,-87.134092
1081,21179,54.1,12.5,"Nelson County, Kentucky",37.803188,-85.465955
1082,21181,54.7,12.5,"Nicholas County, Kentucky",38.337132,-84.025554
1083,21183,56.0,12.5,"Ohio County, Kentucky",37.477859,-86.844871
1084,21185,57.5,10.4,"Oldham County, Kentucky",38.400046,-85.456059
1085,21187,53.4,12.3,"Owen County, Kentucky",38.499603,-84.841509
1086,21189,51.8,13.4,"Owsley County, Kentucky",37.423452,-83.691566
1087,21191,57.2,12.3,"Pendleton County, Kentucky",38.690765,-84.354041
1088,21193,51.6,12.9,"Perry County, Kentucky",37.241282,-83.217772
1089,21195,53.6,13.2,"Pike County, Kentucky",37.482067,-82.402869
1090,21197,46.7,15.6,"Powell County, Kentucky",37.810379,-83.826985
1091,21199,50.2,15.9,"Pulaski County, Kentucky",37.108312,-84.579986
1092,21201,54.9,12.5,"Robertson County, Kentucky",38.513826,-84.063757
1093,21203,55.3,11.2,"Rockcastle County, Kentucky",37.36122,-84.314419
1094,21205,39.2,13.7,"Rowan County, Kentucky",38.205894,-83.425969
1095,21207,50.4,14.9,"Russell County, Kentucky",36.989127,-85.058976
1096,21209,57.3,10.5,"Scott County, Kentucky",38.289882,-84.579376
1097,21211,54.6,11.7,"Shelby County, Kentucky",38.239426,-85.22836
1098,21213,53.0,14.5,"Simpson County, Kentucky",36.740863,-86.581464
1099,21215,63.7,10.8,"Spencer County, Kentucky",38.026976,-85.321525
1100,21217,44.2,17.3,"Taylor County, Kentucky",37.365106,-85.326698
1101,21219,55.6,11.8,"Todd County, Kentucky",36.840338,-87.183642
1102,21221,57.8,14.9,"Trigg County, Kentucky",36.807681,-87.858652
1103,21223,57.0,12.0,"Trimble County, Kentucky",38.618193,-85.355171
1104,21225,50.0,11.5,"Union County, Kentucky",37.658029,-87.95165
1105,21227,46.5,11.4,"Warren County, Kentucky",36.995634,-86.423579
1106,21229,49.7,12.3,"Washington County, Kentucky",37.754209,-85.175416
1107,21231,48.3,14.0,"Wayne County, Kentucky",36.802011,-84.83044
1108,21233,55.3,14.1,"Webster County, Kentucky",37.520021,-87.685095
1109,21235,49.4,13.6,"Whitley County, Kentucky",36.758021,-84.14455
1110,21237,48.9,17.1,"Wolfe County, Kentucky",37.743774,-83.495068
1111,21239,56.3,11.9,"Woodford County, Kentucky",38.042789,-84.748147
1112,22001,47.7,12.2,"Acadia Parish, Louisiana",30.291497,-92.411037
1113,22003,39.9,15.3,"Allen Parish, Louisiana",30.652744,-92.819605
1114,22005,53.7,10.3,"Ascension Parish, Louisiana",30.202946,-90.910023
1115,22007,48.1,10.2,"Assumption Parish, Louisiana",29.899884,-91.050528
1116,22009,45.1,12.3,"Avoyelles Parish, Louisiana",31.085094,-91.993798
1117,22011,54.2,11.4,"Beauregard Parish, Louisiana",30.645018,-93.340253
1118,22013,45.7,11.0,"Bienville Parish, Louisiana",32.344268,-93.061513
1119,22015,48.0,11.9,"Bossier Parish, Louisiana",32.696202,-93.617977
1120,22017,39.1,12.6,"Caddo Parish, Louisiana",32.577195,-93.882423
1121,22019,46.9,12.8,"Calcasieu Parish, Louisiana",30.229559,-93.358015
1122,22021,45.4,14.0,"Caldwell Parish, Louisiana",32.101244,-92.11418
1123,22023,66.0,8.1,"Cameron Parish, Louisiana",29.871989,-93.165437
1124,22025,48.5,9.7,"Catahoula Parish, Louisiana",31.666517,-91.846703
1125,22027,37.2,12.5,"Claiborne Parish, Louisiana",32.827585,-92.991125
1126,22029,42.0,11.3,"Concordia Parish, Louisiana",31.469806,-91.626314
1127,22031,45.8,11.6,"De Soto Parish, Louisiana",32.059248,-93.740797
1128,22033,38.9,11.7,"East Baton Rouge Parish, Louisiana",30.544002,-91.093174
1129,22035,25.5,11.5,"East Carroll Parish, Louisiana",32.73017,-91.234141
1130,22037,42.7,12.9,"East Feliciana Parish, Louisiana",30.839784,-91.043434
1131,22039,43.4,12.1,"Evangeline Parish, Louisiana",30.720693,-92.404086
1132,22041,42.6,11.6,"Franklin Parish, Louisiana",32.138279,-91.672101
1133,22043,46.6,13.0,"Grant Parish, Louisiana",31.597787,-92.561716
1134,22045,45.3,11.5,"Iberia Parish, Louisiana",29.606013,-91.842706
1135,22047,39.3,12.5,"Iberville Parish, Louisiana",30.288394,-91.36315
1136,22049,46.8,11.3,"Jackson Parish, Louisiana",32.30448,-92.556672
1137,22051,43.5,12.5,"Jefferson Parish, Louisiana",29.5033,-90.036231
1138,22053,47.4,12.0,"Jefferson Davis Parish, Louisiana",30.269529,-92.816221
1139,22055,43.4,11.5,"Lafayette Parish, Louisiana",30.206507,-92.06417
1140,22057,49.4,11.6,"Lafourche Parish, Louisiana",29.491993,-90.394849
1141,22059,48.4,10.4,"LaSalle Parish, Louisiana",31.680836,-92.161809
1142,22061,35.9,8.6,"Lincoln Parish, Louisiana",32.601148,-92.662082
1143,22063,50.2,14.6,"Livingston Parish, Louisiana",30.440419,-90.727474
1144,22065,34.5,11.7,"Madison Parish, Louisiana",32.365824,-91.240729
1145,22067,42.8,10.0,"Morehouse Parish, Louisiana",32.820008,-91.800399
1146,22069,39.9,8.4,"Natchitoches Parish, Louisiana",31.734982,-93.086106
1147,22071,29.9,12.3,"Orleans Parish, Louisiana",30.068636,-89.939007
1148,22073,41.2,11.7,"Ouachita Parish, Louisiana",32.477495,-92.154798
1149,22075,51.3,11.8,"Plaquemines Parish, Louisiana",29.402337,-89.298489
1150,22077,43.2,13.4,"Pointe Coupee Parish, Louisiana",30.708319,-91.604621
1151,22079,44.3,12.7,"Rapides Parish, Louisiana",31.193204,-92.535953
1152,22081,45.3,12.4,"Red River Parish, Louisiana",32.101213,-93.34905
1153,22083,47.1,9.7,"Richland Parish, Louisiana",32.418121,-91.758375
1154,22085,51.5,11.8,"Sabine Parish, Louisiana",31.560209,-93.559228
1155,22087,42.9,13.6,"St. Bernard Parish, Louisiana",29.91811,-89.263494
1156,22089,49.7,11.4,"St. Charles Parish, Louisiana",29.913833,-90.359314
1157,22091,38.7,14.9,"St. Helena Parish, Louisiana",30.821423,-90.70935
1158,22093,46.7,12.3,"St. James Parish, Louisiana",30.02482,-90.793956
1159,22095,45.4,11.1,"St. John the Baptist Parish, Louisiana",30.117471,-90.504677
1160,22097,43.7,9.9,"St. Landry Parish, Louisiana",30.583441,-91.989275
1161,22099,49.3,10.9,"St. Martin Parish, Louisiana",30.121433,-91.611481
1162,22101,39.5,12.2,"St. Mary Parish, Louisiana",29.629349,-91.463804
1163,22103,52.9,12.5,"St. Tammany Parish, Louisiana",30.410022,-89.951962
1164,22105,44.1,12.1,"Tangipahoa Parish, Louisiana",30.621581,-90.406633
1165,22107,35.6,11.9,"Tensas Parish, Louisiana",32.001489,-91.342576
1166,22109,48.0,12.5,"Terrebonne Parish, Louisiana",29.333266,-90.844191
1167,22111,48.8,8.7,"Union Parish, Louisiana",32.829349,-92.37565
1168,22113,48.6,14.4,"Vermilion Parish, Louisiana",29.786872,-92.29009
1169,22115,53.9,11.2,"Vernon Parish, Louisiana",31.110563,-93.18152
1170,22117,43.8,13.9,"Washington Parish, Louisiana",30.852144,-90.046253
1171,22119,44.6,12.3,"Webster Parish, Louisiana",32.732152,-93.339825
1172,22121,47.7,10.6,"West Baton Rouge Parish, Louisiana",30.464052,-91.309808
1173,22123,48.1,12.1,"West Carroll Parish, Louisiana",32.79248,-91.451998
1174,22125,34.4,11.0,"West Feliciana Parish, Louisiana",30.872701,-91.421008
1175,22127,46.1,12.7,"Winn Parish, Louisiana",31.941187,-92.641269
1176,23001,49.0,14.6,"Androscoggin County, Maine",44.167681,-70.207435
1177,23003,54.4,11.5,"Aroostook County, Maine",46.727057,-68.64941
1178,23005,49.2,13.3,"Cumberland County, Maine",43.808348,-70.330375
1179,23007,50.4,14.9,"Franklin County, Maine",44.973012,-70.444727
1180,23009,54.9,13.5,"Hancock County, Maine",44.564906,-68.370703
1181,23011,48.7,16.3,"Kennebec County, Maine",44.417012,-69.765764
1182,23013,50.7,16.4,"Knox County, Maine",44.042045,-69.038515
1183,23015,54.1,14.6,"Lincoln County, Maine",43.994265,-69.514029
1184,23017,46.1,16.5,"Oxford County, Maine",44.494585,-70.734688
1185,23019,47.7,12.8,"Penobscot County, Maine",45.390602,-68.657487
1186,23021,51.6,17.3,"Piscataquis County, Maine",45.917678,-69.104548
1187,23023,55.1,13.2,"Sagadahoc County, Maine",43.916694,-69.843994
1188,23025,50.9,15.3,"Somerset County, Maine",45.507482,-69.97604
1189,23027,52.9,15.0,"Waldo County, Maine",44.505361,-69.139678
1190,23029,51.4,14.8,"Washington County, Maine",44.967009,-67.609354
1191,23031,52.9,13.7,"York County, Maine",43.427239,-70.670402
1192,24001,44.3,12.0,"Allegany County, Maryland",39.612309,-78.703108
1193,24003,51.3,10.7,"Anne Arundel County, Maryland",38.993374,-76.560511
1194,24005,46.2,10.2,"Baltimore County, Maryland",39.443167,-76.616569
1195,24009,52.9,10.5,"Calvert County, Maryland",38.521358,-76.525864
1196,24011,49.7,11.6,"Caroline County, Maryland",38.871531,-75.831631
1197,24013,56.6,9.2,"Carroll County, Maryland",39.563189,-77.015512
1198,24015,51.9,11.8,"Cecil County, Maryland",39.562352,-75.941584
1199,24017,50.0,10.4,"Charles County, Maryland",38.472853,-77.015427
1200,24019,48.6,11.7,"Dorchester County, Maryland",38.429196,-76.047433
1201,24021,54.8,10.0,"Frederick County, Maryland",39.470427,-77.397627
1202,24023,55.3,9.4,"Garrett County, Maryland",39.529871,-79.269416
1203,24025,54.6,9.6,"Harford County, Maryland",39.537429,-76.299789
1204,24027,58.1,7.5,"Howard County, Maryland",39.252264,-76.924406
1205,24029,47.1,10.3,"Kent County, Maryland",39.239177,-76.1242
1206,24031,53.3,8.2,"Montgomery County, Maryland",39.137382,-77.203063
1207,24033,38.3,10.5,"Prince George's County, Maryland",38.82588,-76.847272
1208,24035,57.3,10.7,"Queen Anne's County, Maryland",39.040693,-76.082405
1209,24037,53.0,10.0,"St. Mary's County, Maryland",38.222666,-76.534271
1210,24039,32.5,11.2,"Somerset County, Maryland",38.07445,-75.853323
1211,24041,54.4,12.2,"Talbot County, Maryland",38.749427,-76.17913
1212,24043,48.9,11.9,"Washington County, Maryland",39.603621,-77.814671
1213,24045,44.2,9.6,"Wicomico County, Maryland",38.367389,-75.632206
1214,24047,50.4,11.5,"Worcester County, Maryland",38.222133,-75.309932
1215,24510,26.9,10.9,"Baltimore city, Maryland",39.300214,-76.610516
1216,25001,53.3,11.6,"Barnstable County, Massachusetts",41.798819,-70.211083
1217,25003,45.1,13.2,"Berkshire County, Massachusetts",42.375314,-73.213948
1218,25005,46.4,10.9,"Bristol County, Massachusetts",41.748576,-71.087062
1219,25007,45.4,11.5,"Dukes County, Massachusetts",41.380939,-70.701536
1220,25009,48.4,9.9,"Essex County, Massachusetts",42.642711,-70.865107
1221,25011,47.9,13.7,"Franklin County, Massachusetts",42.583791,-72.591655
1222,25013,41.9,11.1,"Hampden County, Massachusetts",42.136198,-72.635648
1223,25015,38.8,10.2,"Hampshire County, Massachusetts",42.339459,-72.663694
1224,25017,49.9,8.1,"Middlesex County, Massachusetts",42.479477,-71.396507
1225,25019,48.6,11.4,"Nantucket County, Massachusetts",41.305878,-70.14191
1226,25021,52.1,8.1,"Norfolk County, Massachusetts",42.169703,-71.179875
1227,25023,50.8,10.0,"Plymouth County, Massachusetts",41.987196,-70.741942
1228,25025,30.5,8.1,"Suffolk County, Massachusetts",42.33196,-71.020173
1229,25027,48.0,10.8,"Worcester County, Massachusetts",42.311693,-71.940282
1230,26001,58.2,13.0,"Alcona County, Michigan",44.682535,-82.83408
1231,26003,49.7,10.9,"Alger County, Michigan",47.080077,-86.564108
1232,26005,58.1,10.8,"Allegan County, Michigan",42.595788,-86.634745
1233,26007,52.6,13.4,"Alpena County, Michigan",44.894954,-83.426574
1234,26009,61.3,10.4,"Antrim County, Michigan",45.005457,-85.175625
1235,26011,55.1,12.2,"Arenac County, Michigan",44.03687,-83.740675
1236,26013,41.0,11.7,"Baraga County, Michigan",46.696068,-88.356022
1237,26015,60.4,10.6,"Barry County, Michigan",42.582811,-85.31455
1238,26017,49.3,12.5,"Bay County, Michigan",43.699711,-83.978701
1239,26019,54.7,15.1,"Benzie County, Michigan",44.648621,-86.494317
1240,26021,50.3,12.1,"Berrien County, Michigan",41.792639,-86.741822
1241,26023,52.4,14.5,"Branch County, Michigan",41.918585,-85.066523
1242,26025,46.4,14.5,"Calhoun County, Michigan",42.24299,-85.012385
1243,26027,55.2,12.8,"Cass County, Michigan",41.91624,-85.999457
1244,26029,56.1,13.2,"Charlevoix County, Michigan",45.513164,-85.450392
1245,26031,56.9,11.6,"Cheboygan County, Michigan",45.47612,-84.495271
1246,26033,44.4,13.1,"Chippewa County, Michigan",46.321819,-84.52063
1247,26035,51.4,14.9,"Clare County, Michigan",43.991137,-84.838325
1248,26037,56.0,9.1,"Clinton County, Michigan",42.950455,-84.591695
1249,26039,55.1,13.7,"Crawford County, Michigan",44.680208,-84.611132
1250,26041,53.8,13.1,"Delta County, Michigan",45.805101,-86.901373
1251,26043,55.0,12.5,"Dickinson County, Michigan",46.012823,-87.866119
1252,26045,51.6,12.8,"Eaton County, Michigan",42.589614,-84.846524
1253,26047,56.6,11.5,"Emmet County, Michigan",45.590094,-84.986822
1254,26049,45.1,13.7,"Genesee County, Michigan",43.021077,-83.706372
1255,26051,55.1,13.6,"Gladwin County, Michigan",43.98975,-84.389816
1256,26053,46.7,12.7,"Gogebic County, Michigan",46.488054,-89.788314
1257,26055,51.2,13.5,"Grand Traverse County, Michigan",44.718688,-85.553848
1258,26057,45.6,12.7,"Gratiot County, Michigan",43.292326,-84.60469
1259,26059,52.8,12.4,"Hillsdale County, Michigan",41.864475,-84.642409
1260,26061,43.0,9.3,"Houghton County, Michigan",46.998305,-88.652066
1261,26063,56.3,11.2,"Huron County, Michigan",43.907616,-82.857045
1262,26065,38.5,11.1,"Ingham County, Michigan",42.603534,-84.373811
1263,26067,49.5,13.1,"Ionia County, Michigan",42.94465,-85.073766
1264,26069,53.2,15.0,"Iosco County, Michigan",44.329482,-82.849447
1265,26071,50.2,15.0,"Iron County, Michigan",46.170249,-88.540409
1266,26073,34.9,10.0,"Isabella County, Michigan",43.645233,-84.839425
1267,26075,47.6,14.3,"Jackson County, Michigan",42.248474,-84.420868
1268,26077,44.5,11.0,"Kalamazoo County, Michigan",42.246266,-85.532854
1269,26079,55.1,14.8,"Kalkaska County, Michigan",44.678881,-85.088992
1270,26081,48.8,10.3,"Kent County, Michigan",43.032497,-85.547446
1271,26083,55.7,11.9,"Keweenaw County, Michigan",47.681981,-88.148802
1272,26085,46.5,15.4,"Lake County, Michigan",43.995187,-85.8114
1273,26087,55.9,11.0,"Lapeer County, Michigan",43.088633,-83.224325
1274,26089,60.7,10.7,"Leelanau County, Michigan",45.146182,-86.051574
1275,26091,49.3,12.8,"Lenawee County, Michigan",41.895915,-84.066853
1276,26093,59.1,9.9,"Livingston County, Michigan",42.602532,-83.911718
1277,26095,45.3,12.2,"Luce County, Michigan",46.940602,-85.582368
1278,26097,54.1,13.7,"Mackinac County, Michigan",46.167981,-85.303756
1279,26099,49.3,11.3,"Macomb County, Michigan",42.671467,-82.910869
1280,26101,50.1,13.0,"Manistee County, Michigan",44.350385,-86.602967
1281,26103,46.3,11.0,"Marquette County, Michigan",46.656597,-87.584028
1282,26105,54.6,13.5,"Mason County, Michigan",43.996636,-86.750814
1283,26107,42.7,11.8,"Mecosta County, Michigan",43.635295,-85.332751
1284,26109,52.8,13.2,"Menominee County, Michigan",45.544174,-87.509892
1285,26111,56.8,11.0,"Midland County, Michigan",43.648378,-84.37922
1286,26113,57.4,11.7,"Missaukee County, Michigan",44.325424,-85.085471
1287,26115,53.0,11.9,"Monroe County, Michigan",41.916097,-83.487106
1288,26117,51.2,13.6,"Montcalm County, Michigan",43.312782,-85.149468
1289,26119,50.8,18.6,"Montmorency County, Michigan",45.024134,-84.130107
1290,26121,46.9,13.5,"Muskegon County, Michigan",43.289258,-86.751892
1291,26123,55.3,13.1,"Newaygo County, Michigan",43.562709,-85.791423
1292,26125,52.1,11.0,"Oakland County, Michigan",42.660452,-83.38421
1293,26127,56.6,11.6,"Oceana County, Michigan",43.647255,-86.807575
1294,26129,54.8,13.5,"Ogemaw County, Michigan",44.33328,-84.128073
1295,26131,56.3,12.8,"Ontonagon County, Michigan",47.216604,-89.500461
1296,26133,50.8,15.8,"Osceola County, Michigan",43.997552,-85.322283
1297,26135,56.3,13.6,"Oscoda County, Michigan",44.685121,-84.124894
1298,26137,55.4,13.8,"Otsego County, Michigan",45.021794,-84.576597
1299,26139,56.3,8.1,"Ottawa County, Michigan",42.942346,-86.655342
1300,26141,60.3,9.7,"Presque Isle County, Michigan",45.489515,-83.384019
1301,26143,53.1,16.7,"Roscommon County, Michigan",44.339517,-84.611272
1302,26145,45.3,12.2,"Saginaw County, Michigan",43.328267,-84.05541
1303,26147,52.6,12.6,"St. Clair County, Michigan",42.928804,-82.668914
1304,26149,54.0,12.4,"St. Joseph County, Michigan",41.911488,-85.52287
1305,26151,54.5,11.8,"Sanilac County, Michigan",43.449155,-82.642815
1306,26153,53.9,12.8,"Schoolcraft County, Michigan",46.020758,-86.199352
1307,26155,54.2,10.8,"Shiawassee County, Michigan",42.951545,-84.146352
1308,26157,56.0,11.3,"Tuscola County, Michigan",43.487902,-83.436618
1309,26159,51.0,12.8,"Van Buren County, Michigan",42.283986,-86.305697
1310,26161,44.0,8.8,"Washtenaw County, Michigan",42.252327,-83.844634
1311,26163,38.2,11.8,"Wayne County, Michigan",42.284664,-83.261953
1312,26165,54.1,14.2,"Wexford County, Michigan",44.331375,-85.570046
1313,27001,61.5,11.5,"Aitkin County, Minnesota",46.602446,-93.41976
1314,27003,54.6,10.6,"Anoka County, Minnesota",45.27411,-93.242723
1315,27005,57.3,9.8,"Becker County, Minnesota",46.937629,-95.741757
1316,27007,42.6,12.6,"Beltrami County, Minnesota",47.878825,-94.986698
1317,27009,51.3,11.0,"Benton County, Minnesota",45.701227,-94.00144
1318,27011,61.2,8.8,"Big Stone County, Minnesota",45.419925,-96.402226
1319,27013,43.3,7.4,"Blue Earth County, Minnesota",44.038225,-94.064071
1320,27015,55.6,9.8,"Brown County, Minnesota",44.246542,-94.733647
1321,27017,50.3,12.8,"Carlton County, Minnesota",46.603818,-92.671044
1322,27019,62.0,8.0,"Carver County, Minnesota",44.821381,-93.800575
1323,27021,61.4,10.0,"Cass County, Minnesota",46.951427,-94.333773
1324,27023,57.0,10.1,"Chippewa County, Minnesota",45.028625,-95.564108
1325,27025,56.1,10.4,"Chisago County, Minnesota",45.505444,-92.903849
1326,27027,50.8,7.9,"Clay County, Minnesota",46.898377,-96.494901
1327,27029,54.6,11.2,"Clearwater County, Minnesota",47.575873,-95.371117
1328,27031,63.5,11.4,"Cook County, Minnesota",47.538571,-90.29019
1329,27033,57.1,10.0,"Cottonwood County, Minnesota",44.010711,-95.18313
1330,27035,56.2,11.8,"Crow Wing County, Minnesota",46.491114,-94.071213
1331,27037,55.3,10.2,"Dakota County, Minnesota",44.670893,-93.062481
1332,27039,59.6,8.9,"Dodge County, Minnesota",44.020706,-92.869353
1333,27041,60.6,8.8,"Douglas County, Minnesota",45.936429,-95.46061
1334,27043,56.6,11.1,"Faribault County, Minnesota",43.676522,-93.947234
1335,27045,60.8,9.1,"Fillmore County, Minnesota",43.67727,-92.093681
1336,27047,52.0,12.5,"Freeborn County, Minnesota",43.674202,-93.350289
1337,27049,56.6,11.9,"Goodhue County, Minnesota",44.406178,-92.716
1338,27051,62.7,9.2,"Grant County, Minnesota",45.930743,-96.010699
1339,27053,47.2,10.0,"Hennepin County, Minnesota",45.006064,-93.475185
1340,27055,58.7,9.3,"Houston County, Minnesota",43.66699,-91.501556
1341,27057,63.4,11.0,"Hubbard County, Minnesota",47.095551,-94.91329
1342,27059,53.4,12.3,"Isanti County, Minnesota",45.562431,-93.296339
1343,27061,58.2,11.2,"Itasca County, Minnesota",47.490843,-93.613128
1344,27063,59.5,9.7,"Jackson County, Minnesota",43.673025,-95.149704
1345,27065,55.2,11.2,"Kanabec County, Minnesota",45.94776,-93.297788
1346,27067,57.7,9.1,"Kandiyohi County, Minnesota",45.152714,-95.004981
1347,27069,53.5,10.2,"Kittson County, Minnesota",48.77604,-96.780349
1348,27071,55.1,10.6,"Koochiching County, Minnesota",48.24549,-93.782842
1349,27073,60.6,9.0,"Lac qui Parle County, Minnesota",44.999855,-96.176836
1350,27075,61.0,11.7,"Lake County, Minnesota",47.517111,-91.411704
1351,27077,54.4,11.1,"Lake of the Woods County, Minnesota",48.7681,-94.904634
1352,27079,58.1,9.4,"Le Sueur County, Minnesota",44.373397,-93.73018
1353,27081,60.2,8.0,"Lincoln County, Minnesota",44.408238,-96.272032
1354,27083,52.7,8.1,"Lyon County, Minnesota",44.409195,-95.847268
1355,27085,56.1,8.8,"McLeod County, Minnesota",44.821644,-94.27232
1356,27087,46.9,9.9,"Mahnomen County, Minnesota",47.325842,-95.810703
1357,27089,61.3,9.3,"Marshall County, Minnesota",48.362728,-96.357761
1358,27091,54.0,10.8,"Martin County, Minnesota",43.677118,-94.537198
1359,27093,59.7,9.6,"Meeker County, Minnesota",45.123156,-94.527346
1360,27095,51.4,13.4,"Mille Lacs County, Minnesota",45.929043,-93.632996
1361,27097,57.2,9.9,"Morrison County, Minnesota",46.020484,-94.266619
1362,27099,52.0,11.0,"Mower County, Minnesota",43.666249,-92.759514
1363,27101,60.4,9.4,"Murray County, Minnesota",44.015594,-95.761581
1364,27103,52.5,8.1,"Nicollet County, Minnesota",44.35882,-94.245685
1365,27105,53.7,7.3,"Nobles County, Minnesota",43.677686,-95.763132
1366,27107,56.0,10.1,"Norman County, Minnesota",47.32947,-96.463807
1367,27109,55.2,10.1,"Olmsted County, Minnesota",44.00343,-92.406722
1368,27111,59.9,9.2,"Otter Tail County, Minnesota",46.405725,-95.714578
1369,27113,49.6,11.1,"Pennington County, Minnesota",48.069247,-96.037725
1370,27115,49.7,14.6,"Pine County, Minnesota",46.10094,-92.763094
1371,27117,60.0,9.5,"Pipestone County, Minnesota",44.015361,-96.257015
1372,27119,53.2,9.1,"Polk County, Minnesota",47.774254,-96.400027
1373,27121,62.2,10.5,"Pope County, Minnesota",45.589623,-95.446705
1374,27123,44.2,10.4,"Ramsey County, Minnesota",45.01525,-93.100141
1375,27125,56.2,11.1,"Red Lake County, Minnesota",47.865487,-96.08718
1376,27127,53.7,11.0,"Redwood County, Minnesota",44.403536,-95.254242
1377,27129,57.5,9.5,"Renville County, Minnesota",44.723697,-94.955617
1378,27131,49.5,9.5,"Rice County, Minnesota",44.350943,-93.298503
1379,27133,62.9,8.7,"Rock County, Minnesota",43.669587,-96.263238
1380,27135,58.1,9.6,"Roseau County, Minnesota",48.761066,-95.82153
1381,27137,47.3,11.9,"St. Louis County, Minnesota",47.583852,-92.463645
1382,27139,60.1,8.6,"Scott County, Minnesota",44.651932,-93.534553
1383,27141,56.4,10.1,"Sherburne County, Minnesota",45.443171,-93.775092
1384,27143,57.8,7.5,"Sibley County, Minnesota",44.575734,-94.230123
1385,27145,49.0,8.6,"Stearns County, Minnesota",45.555235,-94.610482
1386,27147,56.0,10.7,"Steele County, Minnesota",44.015261,-93.220453
1387,27149,50.8,6.0,"Stevens County, Minnesota",45.593461,-95.992315
1388,27151,56.9,8.4,"Swift County, Minnesota",45.27545,-95.690398
1389,27153,58.2,9.8,"Todd County, Minnesota",46.066569,-94.900576
1390,27155,60.5,8.0,"Traverse County, Minnesota",45.76984,-96.475049
1391,27157,61.2,9.5,"Wabasha County, Minnesota",44.289693,-92.233341
1392,27159,50.5,13.9,"Wadena County, Minnesota",46.586784,-94.988331
1393,27161,56.4,9.6,"Waseca County, Minnesota",44.01846,-93.589844
1394,27163,56.9,9.9,"Washington County, Minnesota",45.037929,-92.890117
1395,27165,53.3,9.2,"Watonwan County, Minnesota",43.978366,-94.614128
1396,27167,57.4,12.2,"Wilkin County, Minnesota",46.362335,-96.476657
1397,27169,45.2,7.9,"Winona County, Minnesota",43.982268,-91.776708
1398,27171,60.4,8.7,"Wright County, Minnesota",45.175091,-93.966397
1399,27173,59.3,8.4,"Yellow Medicine County, Minnesota",44.715736,-95.862756
1400,28001,39.2,13.0,"Adams County, Mississippi",31.486218,-91.351781
1401,28003,50.8,13.8,"Alcorn County, Mississippi",34.886648,-88.581014
1402,28005,43.9,11.3,"Amite County, Mississippi",31.203933,-90.795542
1403,28007,46.2,11.5,"Attala County, Mississippi",33.09047,-89.588622
1404,28009,51.7,11.5,"Benton County, Mississippi",34.810773,-89.200029
1405,28011,31.7,10.2,"Bolivar County, Mississippi",33.799278,-90.884476
1406,28013,48.0,13.3,"Calhoun County, Mississippi",33.936634,-89.337114
1407,28015,57.0,9.8,"Carroll County, Mississippi",33.440795,-89.918887
1408,28017,42.5,11.6,"Chickasaw County, Mississippi",33.921654,-88.945808
1409,28019,46.4,10.9,"Choctaw County, Mississippi",33.345964,-89.251332
1410,28021,28.2,6.5,"Claiborne County, Mississippi",31.97281,-90.915424
1411,28023,50.7,13.0,"Clarke County, Mississippi",32.048448,-88.685964
1412,28025,41.2,12.3,"Clay County, Mississippi",33.661734,-88.783326
1413,28027,31.3,9.0,"Coahoma County, Mississippi",34.22867,-90.603165
1414,28029,42.1,9.3,"Copiah County, Mississippi",31.866915,-90.448758
1415,28031,45.9,11.4,"Covington County, Mississippi",31.633331,-89.548897
1416,28033,51.6,12.2,"DeSoto County, Mississippi",34.874266,-89.99324
1417,28035,38.8,12.2,"Forrest County, Mississippi",31.18858,-89.259447
1418,28037,56.9,9.3,"Franklin County, Mississippi",31.477798,-90.895884
1419,28039,52.4,12.4,"George County, Mississippi",30.855431,-88.642268
1420,28041,45.4,12.8,"Greene County, Mississippi",31.212846,-88.634811
1421,28043,40.3,12.4,"Grenada County, Mississippi",33.770031,-89.80274
1422,28045,50.1,12.8,"Hancock County, Mississippi",30.391437,-89.47985
1423,28047,45.2,14.4,"Harrison County, Mississippi",30.416536,-89.083376
1424,28049,35.2,11.7,"Hinds County, Mississippi",32.267924,-90.4659
1425,28051,21.7,9.0,"Holmes County, Mississippi",33.125942,-90.091197
1426,28053,28.7,9.3,"Humphreys County, Mississippi",33.132978,-90.523911
1427,28055,38.6,6.9,"Issaquena County, Mississippi",32.754977,-90.988552
1428,28057,50.9,13.8,"Itawamba County, Mississippi",34.281075,-88.363127
1429,28059,47.0,13.0,"Jackson County, Mississippi",30.458491,-88.619991
1430,28061,53.7,9.4,"Jasper County, Mississippi",32.016989,-89.11943
1431,28063,25.7,9.3,"Jefferson County, Mississippi",31.733633,-91.043878
1432,28065,39.3,15.6,"Jefferson Davis County, Mississippi",31.564734,-89.826626
1433,28067,47.6,11.7,"Jones County, Mississippi",31.621044,-89.167262
1434,28069,35.9,14.5,"Kemper County, Mississippi",32.750136,-88.625631
1435,28071,35.8,10.0,"Lafayette County, Mississippi",34.349298,-89.485903
1436,28073,51.1,10.5,"Lamar County, Mississippi",31.197135,-89.514952
1437,28075,42.8,12.9,"Lauderdale County, Mississippi",32.403998,-88.660449
1438,28077,52.9,10.9,"Lawrence County, Mississippi",31.550009,-90.10753
1439,28079,43.8,12.6,"Leake County, Mississippi",32.753268,-89.522568
1440,28081,49.5,14.3,"Lee County, Mississippi",34.288965,-88.680887
1441,28083,28.2,9.8,"Leflore County, Mississippi",33.54979,-90.294934
1442,28085,49.9,11.1,"Lincoln County, Mississippi",31.535216,-90.453566
1443,28087,45.2,11.1,"Lowndes County, Mississippi",33.471424,-88.439723
1444,28089,52.5,9.1,"Madison County, Mississippi",32.63437,-90.03416
1445,28091,51.6,11.6,"Marion County, Mississippi",31.230126,-89.821736
1446,28093,46.0,9.5,"Marshall County, Mississippi",34.76619,-89.504231
1447,28095,49.8,12.1,"Monroe County, Mississippi",33.89003,-88.485038
1448,28097,44.9,11.2,"Montgomery County, Mississippi",33.500714,-89.639625
1449,28099,44.7,13.2,"Neshoba County, Mississippi",32.752518,-89.119274
1450,28101,49.1,10.8,"Newton County, Mississippi",32.40197,-89.118412
1451,28103,40.2,8.5,"Noxubee County, Mississippi",33.10627,-88.565787
1452,28105,32.3,6.6,"Oktibbeha County, Mississippi",33.422313,-88.876151
1453,28107,41.9,11.4,"Panola County, Mississippi",34.365205,-89.963065
1454,28109,51.7,12.8,"Pearl River County, Mississippi",30.773791,-89.586832
1455,28111,47.9,12.9,"Perry County, Mississippi",31.169307,-88.988755
1456,28113,40.8,11.9,"Pike County, Mississippi",31.177517,-90.397725
1457,28115,49.1,12.5,"Pontotoc County, Mississippi",34.227081,-89.037239
1458,28117,50.6,12.2,"Prentiss County, Mississippi",34.620866,-88.52224
1459,28119,34.9,9.0,"Quitman County, Mississippi",34.25264,-90.290525
